@id,@type,@lat,@lon,name,district,district_name
7114008109,node,18.3240129,82.8855692,"Area Hospital,Araku Valley",13999461,Alluri Sitharama Raju
7114008110,node,18.080665,82.673703,"Community Health centre, Paderu",13999461,Alluri Sitharama Raju
7116293196,node,17.4306235,81.7771418,"Area Hospital,Rampachodavaram",13999461,Alluri Sitharama Raju
7116293219,node,17.3483848,81.9622349,"Government Hospital,Pidathamamidi",13999461,Alluri Sitharama Raju
7787449693,node,18.0148317,82.5411613,Government Hospital,13999461,Alluri Sitharama Raju
7787449730,node,18.3346253,82.8657937,Araku Railway Hospital,13999461,Alluri Sitharama Raju
7787449740,node,18.333954,82.870444,Nirmala Hospital,13999461,Alluri Sitharama Raju
7787449763,node,18.3217887,82.8857279,Maa Super Speciality Dental Hospital,13999461,Alluri Sitharama Raju
7787847487,node,17.7519296,81.3990872,Afrin Ayurvedic Hospital,13999461,Alluri Sitharama Raju
7787847529,node,17.5772212,81.253345,Government Hospital,13999461,Alluri Sitharama Raju
7787847530,node,17.7561957,81.4113347,Area Hospital,13999461,Alluri Sitharama Raju
7790467482,node,17.4385944,81.7783622,Nagapalla People Hospital,13999461,Alluri Sitharama Raju
7951559889,node,18.0808258,82.6736203,Area Hospital Paderu,13999461,Alluri Sitharama Raju
8767637044,node,18.3123525,83.1223373,"Government Hospital, Bheemavaram",13999461,Alluri Sitharama Raju
11885839717,node,17.4367269,81.7797931,Nagapalla Praja Vaidyasala,13999461,Alluri Sitharama Raju
12911921397,node,18.4407065,82.5142133,"PHC , Labburu",13999461,Alluri Sitharama Raju
6758468632,node,17.6861622,83.0016124,Ramyasai Nursing Home,13999884,Anakapalli
6768545567,node,17.9135879,82.8137411,St.Ann's Hospital,13999884,Anakapalli
6778538692,node,17.6870707,83.0013013,Vikram Hospital,13999884,Anakapalli
6782121780,node,17.669849,82.6080698,Sri Lalitha Nursing Home,13999884,Anakapalli
6789576725,node,17.8269229,82.9366171,Sri Rama Mother and Child Hospital,13999884,Anakapalli
6791733122,node,17.3623264,82.556764,Sri Subrahmanyam Nursing Home,13999884,Anakapalli
7114008049,node,17.3921523,82.6221342,"Government Hospital, Godicherla",13999884,Anakapalli
7114008052,node,17.927342,82.8931162,"Government Hospital,Cheedikada",13999884,Anakapalli
7114008085,node,17.465312,82.9301819,"Government hospital, Rambili",13999884,Anakapalli
7114008093,node,17.6845257,83.0067163,"NTR Government Hospital,Anakapalle",13999884,Anakapalli
7114008116,node,17.633837,82.986613,"Government Hospital, Munagapaka",13999884,Anakapalli
7114008119,node,17.4130916,82.7254825,"Government Hospital,Nakkapalli",13999884,Anakapalli
7114008143,node,17.6727959,82.6106725,Area Hospital - Narsipatnam,13999884,Anakapalli
7114008149,node,17.8883305,83.0408116,"Government Hospital, K Kotapadu",13999884,Anakapalli
7114008152,node,17.9183224,82.8185393,"Government Hospital,Madugula",13999884,Anakapalli
7114008168,node,17.5178218,82.816752,"Government Hospital,Regupalem",13999884,Anakapalli
7114008180,node,17.6774183,82.4720572,"Government Hospital, Golugonda",13999884,Anakapalli
7787449680,node,17.6613348,82.6275161,Akshaya Hospitals,13999884,Anakapalli
7787449683,node,17.668902,82.610393,Uma Maheswara Children Hospital,13999884,Anakapalli
7787449684,node,17.683136,83.001827,Tirumala Jyoti Hospital,13999884,Anakapalli
7787449685,node,17.7467671,82.9560418,Government Hospital,13999884,Anakapalli
7787449686,node,17.6882064,83.0101255,Dr. Soma Raju Children Hospital,13999884,Anakapalli
7787449688,node,17.687728,83.001839,Kalyani Nursing Home,13999884,Anakapalli
7787449689,node,17.6842691,83.011245,Annapurna Hospital,13999884,Anakapalli
7787449691,node,17.688264,83.009283,SS Dental Hospital,13999884,Anakapalli
7787449692,node,17.6848737,83.0101274,Maternity Hospital,13999884,Anakapalli
7787449694,node,17.686424,83.00072,Sai Teja Hospital,13999884,Anakapalli
7787449695,node,17.6753904,83.0010632,Benargy Hospital,13999884,Anakapalli
7787449696,node,17.6892581,83.0021022,Sri Sagar Hospital,13999884,Anakapalli
7787449699,node,17.8278456,82.9368591,Abhay Arogya Hospital,13999884,Anakapalli
7787449701,node,17.8297069,82.9274015,Sri Vijaya Lakshmi Hospital,13999884,Anakapalli
7787449702,node,17.9169656,82.8128916,Sri Srinivasa Hospital,13999884,Anakapalli
7787449703,node,17.664493,82.613169,Dr. C S Kumar Hospital,13999884,Anakapalli
7787449704,node,17.688484,83.002889,Srinivasa Children's Hospital,13999884,Anakapalli
7787449705,node,17.9925538,82.9828155,Government Hospital,13999884,Anakapalli
7787449707,node,17.664949,82.614116,Dr. Yekkala Rama Krishna Hospital,13999884,Anakapalli
7787449708,node,17.7092053,82.9985248,Thummapala Primary Hospital,13999884,Anakapalli
7787449709,node,17.6852716,83.0024749,London Children's Hospital,13999884,Anakapalli
7787449711,node,17.5478426,82.8529786,Gollaprolu Children's Hospital,13999884,Anakapalli
7787449713,node,17.8250127,82.9417718,Lakshmi Children Hospital,13999884,Anakapalli
7787449714,node,17.6744778,82.5970027,American Hospital,13999884,Anakapalli
7787449715,node,17.6854923,83.00227,Nirmala Maternity Hospital,13999884,Anakapalli
7787449716,node,17.6916683,83.0037356,Ayyappa Gupta Eye Hospital,13999884,Anakapalli
7787449717,node,17.6604204,82.615497,Sri Dhanvi Multi Speciality Dental Hospital,13999884,Anakapalli
7787449719,node,17.8402661,82.9988148,Government Hospital,13999884,Anakapalli
7787449720,node,17.687618,83.001744,Usha Prime Multispeciality Hospital,13999884,Anakapalli
7787449721,node,17.566434,82.682574,Hosanna Hospital,13999884,Anakapalli
7787449723,node,17.5516438,82.8533103,Janaseva Eye Hospital,13999884,Anakapalli
7787449724,node,17.9272601,82.8906247,Dr. K. Venkatesh Hospital,13999884,Anakapalli
7787449727,node,17.6671649,82.6123346,Sahasra Dental Hospital,13999884,Anakapalli
7787449728,node,17.82508,82.9391521,Spark Dental Hospital,13999884,Anakapalli
7787449731,node,17.5534898,82.8517581,Sree Seshapadma Hospital,13999884,Anakapalli
7787449732,node,17.687646,83.002401,Gadam Dental Hospital,13999884,Anakapalli
7787449736,node,17.680999,83.001142,Medikon Hospital,13999884,Anakapalli
7787449739,node,17.686005,83.009456,Ravi Hospital,13999884,Anakapalli
7787449741,node,17.68721,83.005706,Laxmi Orthopaedic Hospital,13999884,Anakapalli
7787449745,node,17.6625914,82.6187861,Dr. Adikari Gopalarao Hospital,13999884,Anakapalli
7787449746,node,17.6645905,82.6124877,Lifeline Hospital,13999884,Anakapalli
7787449747,node,17.69098,83.0099047,Sapthagiri Hospital,13999884,Anakapalli
7787449749,node,17.5452357,82.8498751,Dr. Thrinadh Hospital,13999884,Anakapalli
7787449752,node,17.631329,82.693721,Emmanuel General Hospital,13999884,Anakapalli
7787449753,node,17.6650881,82.6156386,Ananda Nursing Home,13999884,Anakapalli
7787449754,node,17.685712,83.0015806,Dr. Ram Mohan Hospital,13999884,Anakapalli
7787449756,node,17.5098894,82.6259387,Government Hospital,13999884,Anakapalli
7787449757,node,17.685934,83.001269,Mother and Child Hospital,13999884,Anakapalli
7787449758,node,17.6843742,83.0022801,Siddhartha Nursing Home,13999884,Anakapalli
7787449759,node,17.544446,82.849726,Vijaya Hospital,13999884,Anakapalli
7787449762,node,17.659848,82.627161,Drusti Eye Hospital,13999884,Anakapalli
7787449765,node,17.6777911,83.0006719,Sri Venkateswara Hospital,13999884,Anakapalli
7787449766,node,17.6677008,82.6115976,Satya Sai Hospital,13999884,Anakapalli
7787647589,node,17.3476116,82.5863171,Government Hospital,13999884,Anakapalli
7787647595,node,17.4078787,82.7119667,Lazam Hospital,13999884,Anakapalli
7787647597,node,17.3599386,82.557579,Sri Viajaya Sai Matha Hospital,13999884,Anakapalli
7787647607,node,17.369831,82.569309,Sriprakash Ayurveda Hospital,13999884,Anakapalli
7787647611,node,17.562306,82.9771482,Starzen Hospital,13999884,Anakapalli
7787647615,node,17.5619762,82.9768678,Jai Srikrishna Hospital,13999884,Anakapalli
7787647635,node,17.3644361,82.5610684,Siddhartha Charitable Eye Hospital,13999884,Anakapalli
7787647645,node,17.5685137,83.0939853,NTPC Hospital,13999884,Anakapalli
7787647649,node,17.790161,83.12163,Mother and Child Hospital,13999884,Anakapalli
7787647660,node,17.6297105,83.077059,Sharan Hospital,13999884,Anakapalli
7787647670,node,17.6212637,83.08184,Asha Hospital Diabetes & Multi Speciality,13999884,Anakapalli
7787647672,node,17.5659385,82.9784452,Surya Teja Multispeciality Hospital,13999884,Anakapalli
7787647678,node,17.6288271,83.0901428,Amma Hospital,13999884,Anakapalli
7787647679,node,17.4096155,82.7166731,Hetero Eye Hospital,13999884,Anakapalli
13281158467,node,17.6872398,83.0127619,Geetha Eye & Orthopaedic Hospital,13999884,Anakapalli
521013578,way,17.6631126,83.1441416,Visakhapatnam Steel General Hospital,13999884,Anakapalli
3092022472,node,15.1619769,77.3813452,Santhi Homoeo Clinic,2022303,Anantapur
4662278230,node,14.6982401,76.8513762,Government Hospital,2022303,Anantapur
5577103922,node,14.6789441,77.602921,K K Nursing Home,2022303,Anantapur
5920916730,node,14.9053993,78.0112076,Sri Devi Children's Hospital,2022303,Anantapur
6755751406,node,14.6651404,77.6096823,Vijaya Nursing Home - Anantapur,2022303,Anantapur
6755778855,node,14.6753847,77.6021583,Sri Venkateswara Super Speciality Hospitals,2022303,Anantapur
6758230160,node,14.6786182,77.5999828,Abhaya Kidney Care Multispeciality Hospital,2022303,Anantapur
6758338965,node,14.68038,77.6009577,Mythri Hospitals,2022303,Anantapur
6758342894,node,14.6797897,77.6007579,Ravitej Nursing Home,2022303,Anantapur
6758346079,node,14.6885257,77.5970846,Meda Nursing Home,2022303,Anantapur
6758383160,node,14.6814256,77.5991499,Varun Children's Hospital,2022303,Anantapur
6758413694,node,14.6791501,77.5979832,Sri Sai Kurpa Nursing Home,2022303,Anantapur
6758424262,node,14.6812219,77.5981227,Sri Sai Balaji Hospital,2022303,Anantapur
6758424273,node,14.6770296,77.5984546,Divyasree Hospital,2022303,Anantapur
6758449423,node,14.6757031,77.6022868,Swetha Ent Hospital,2022303,Anantapur
6758450191,node,14.6755195,77.6017812,Baby Hospital (Hyma Test Tube Baby Centre),2022303,Anantapur
6758450292,node,14.6804513,77.6031585,Jeevana Jyothi Hospitals,2022303,Anantapur
6758450297,node,14.6750583,77.6020387,Hrudaya Children Hospital,2022303,Anantapur
6758450859,node,14.6756966,77.6021963,Mamatha Nursing Home,2022303,Anantapur
6758451927,node,14.6771055,77.602838,Sudhir Surgical Clinic,2022303,Anantapur
6758454466,node,14.6750155,77.6014875,Priya Multispeciality Hospital,2022303,Anantapur
6758460538,node,14.6755539,77.6029426,Suma Eye Clinic,2022303,Anantapur
6758464077,node,14.6754929,77.6031598,Dr.Ysr Memorial Hospitals,2022303,Anantapur
6758477780,node,14.6793694,77.5939411,Prasanthi Nursing Home - Anantapur,2022303,Anantapur
6758478594,node,14.6730188,77.6019636,Pavani Hospital,2022303,Anantapur
6758481139,node,14.6873452,77.6016618,Santhi Nursing Home - Anantapur,2022303,Anantapur
6758486866,node,14.672422,77.6011951,Mnr Nursing Home,2022303,Anantapur
6758492544,node,14.6730201,77.6007512,Sri Prakash Eye Hospital,2022303,Anantapur
6758500599,node,14.6807757,77.5938284,Aasha Hospitals,2022303,Anantapur
6758585984,node,14.6742812,77.6072784,Anantapuram Praja Vaidyasala,2022303,Anantapur
6758611181,node,14.9098048,78.0061926,Sri Kanchani Hospital,2022303,Anantapur
6758614395,node,15.1647882,77.3780642,Preethi Nursing Home - Anantapur,2022303,Anantapur
7113926665,node,14.9087159,78.0043595,"Area Hospital,Tadipatri",2022303,Anantapur
7113926673,node,15.123375,77.6344378,"Government Community Hospital,Gooty",2022303,Anantapur
7113926674,node,14.8050171,77.0758738,"Government Hospital, Kanekal",2022303,Anantapur
7113926680,node,14.936632,76.927765,"Government Hospital,Nagalapuram",2022303,Anantapur
7113926683,node,15.0133389,77.2142284,"Government Hospital,P.Kottalapalli",2022303,Anantapur
7113926692,node,14.670812,77.5946922,Govt. General Hospital,2022303,Anantapur
7113926709,node,14.6810951,77.610412,Government Communicable Diseases Hospital,2022303,Anantapur
7113926711,node,14.998239,76.977976,"Government Hospital, Bommanahal",2022303,Anantapur
7113926717,node,15.0627154,77.7825672,"Government Hospital,Kristipadu",2022303,Anantapur
7113926723,node,14.8128784,77.9671156,"Government Hospital,Putlur",2022303,Anantapur
7113926729,node,14.3430619,77.2277199,"Government primary hospital,Kambadur",2022303,Anantapur
7113926750,node,15.005934,76.834643,"Government Hospital,D.Hirehal",2022303,Anantapur
7113926759,node,15.020489,77.6666764,"Government Hospital,Peddavadugur",2022303,Anantapur
7113926762,node,14.8034556,77.7180839,"Government Hospital,Singanamala",2022303,Anantapur
7113926765,node,14.6975178,77.594582,Government Hosptial,2022303,Anantapur
7113926797,node,14.9296529,77.8611195,"Government Hospital, Peddapappur",2022303,Anantapur
7113926803,node,15.0656535,77.1798884,"Government Hospital,Vidapanakal",2022303,Anantapur
7113926816,node,14.690424,77.635785,BKS Government Hospital,2022303,Anantapur
7113926829,node,15.1625183,77.3786558,"Government Hospital, Guntakal",2022303,Anantapur
7113926832,node,15.0563824,77.5028694,"Government Hospital,Nagasamudram",2022303,Anantapur
7113926835,node,14.9443864,77.5897149,"Government Hospital,Pamidi",2022303,Anantapur
7113926844,node,14.6874453,77.5934529,Government Ayurvedic Hospital,2022303,Anantapur
7810296663,node,14.552957,77.111059,Dr. Linga Reddy Hospital,2022303,Anantapur
7810296666,node,14.9081808,78.0104994,Aaditya Hospital,2022303,Anantapur
7810296670,node,15.11914,77.635003,Shanthi Priya Hospital,2022303,Anantapur
7810296671,node,15.1616501,77.3789672,RT Hospital,2022303,Anantapur
7810296672,node,15.161685,77.383803,Life Line Hospital,2022303,Anantapur
7810296675,node,15.0198596,77.6725498,Dr.Siva Sankar Hospital,2022303,Anantapur
7810296676,node,15.1602356,77.3810107,Balaji Eye Hospital,2022303,Anantapur
7810296678,node,14.9070464,78.0112162,Shirish Childrens Hospital,2022303,Anantapur
7810296680,node,14.908204,78.014771,Thomas Reddy Hospital,2022303,Anantapur
7810296681,node,14.9077311,78.0112561,ABC Hospital,2022303,Anantapur
7810296686,node,14.9086426,78.006417,Umadevi Hospital,2022303,Anantapur
7810296687,node,14.5536454,77.114417,Shree Lochana Eye Hospital,2022303,Anantapur
7810296697,node,14.5594273,77.1089739,RDT Hosptial,2022303,Anantapur
7810296705,node,14.9069421,78.011721,Asha Hospital,2022303,Anantapur
7810296707,node,14.9068715,78.0148968,RK Hospital,2022303,Anantapur
7810296708,node,14.906851,78.0159746,Sri Venkateswara Children's Hospital,2022303,Anantapur
7810296714,node,14.907855,78.0091029,Trilochan Reddy Hospital,2022303,Anantapur
7810296716,node,14.9477487,77.5905751,Murali Sai Krishna Hospital,2022303,Anantapur
7810296718,node,14.9460725,77.5909378,Lakshmi Hospital,2022303,Anantapur
7810296720,node,14.9086387,78.0110456,Sivajyothi Hospital,2022303,Anantapur
7810296721,node,14.55902,77.106971,Surya Chandra Hospital,2022303,Anantapur
7810296725,node,14.6958099,76.8566151,Dr. Gopal Rao Hospital,2022303,Anantapur
7810296726,node,14.910594,77.9875121,Rotary Hospital,2022303,Anantapur
7810296727,node,15.1605602,77.3810133,Sai Krishna Hospital,2022303,Anantapur
7810296731,node,14.948823,77.591942,Sree Sai Hospital,2022303,Anantapur
7810296732,node,15.1664722,77.3770302,Gupta Children Hospital,2022303,Anantapur
7812225263,node,14.669693,77.590868,Harshitha Multi Speciality Hospital,2022303,Anantapur
7812225264,node,14.6960854,77.5850572,Rakshaa Multi Speciality Hospital,2022303,Anantapur
7812225267,node,14.6993848,77.5825856,Rachana's Hospital,2022303,Anantapur
7812225273,node,14.6703788,77.5928196,Srinivasa Kidney Centre,2022303,Anantapur
7812225277,node,14.683884,77.5882713,Srinivasa Children's Hospital,2022303,Anantapur
7812225278,node,14.6662553,77.5958946,Life Care Hospital,2022303,Anantapur
7812225279,node,14.6368248,77.6215272,Sree Pragna Cancer Hospital,2022303,Anantapur
7812225280,node,14.6689994,77.5936107,Siri Hospital,2022303,Anantapur
7812225285,node,14.6696952,77.5939398,Amulya Kerala Ayurveda Hospital,2022303,Anantapur
7812225287,node,14.6517395,77.5821587,Saveera Hospital,2022303,Anantapur
7812225288,node,14.683612,77.590103,Sri Chetan Hospital,2022303,Anantapur
7812225289,node,14.669688,77.592492,Praja Hospital,2022303,Anantapur
7812225291,node,14.6940458,77.5991764,CSR Hospital,2022303,Anantapur
7812225293,node,14.670808,77.592522,Sree Amaravathi Multispeciality Hospital,2022303,Anantapur
7812225296,node,14.6948333,77.6379669,Vishnu Hospital,2022303,Anantapur
7812225298,node,14.6849527,77.5910963,Hari Sri Hospital,2022303,Anantapur
7812225304,node,14.689561,77.631658,Sri Vijayalakshmi Hospital,2022303,Anantapur
7812225306,node,14.6842484,77.5776274,Venkata Sai Nagarjuna Hospital,2022303,Anantapur
7812225309,node,14.655189,77.608219,Super Speciality Hospital,2022303,Anantapur
7812225311,node,14.6681031,77.5843037,Sandhya Hospital,2022303,Anantapur
7812225312,node,14.6692065,77.5869354,"Shine Hospitals, Skin Care Clinic",2022303,Anantapur
7812225313,node,14.6885362,77.5749918,Sri Sathya Sai Hospital,2022303,Anantapur
7812225314,node,14.6835261,77.5924173,Dolphin Childrens Hospital,2022303,Anantapur
7812225316,node,14.668032,77.584304,Sandhya Hospital,2022303,Anantapur
7812225317,node,14.6154181,77.6058121,Prabhutva Pashu Vidyasala,2022303,Anantapur
7812225320,node,14.610579,77.644027,SKU Hospital,2022303,Anantapur
7812225322,node,14.683928,77.589039,R.D.T. Hospital,2022303,Anantapur
7812225323,node,14.6626337,77.6010398,Global Ayurveda Hospital,2022303,Anantapur
7812225324,node,14.6835981,77.5852005,Praja Prathamika Chikistha Kendram,2022303,Anantapur
7812225326,node,14.6806781,77.5936863,Sri Sai Manipal Hospital,2022303,Anantapur
7812225327,node,14.6700521,77.5939472,Razia Multi Speciality Hospital,2022303,Anantapur
7812341207,node,14.6752928,77.6025793,Leela Super Speciality Dental Hospital,2022303,Anantapur
7812341208,node,14.677248,77.60385,Sujatha Dental Hospital,2022303,Anantapur
7812341210,node,14.67515,77.605537,Ramavadutha Dental Hospital,2022303,Anantapur
7812341211,node,14.6722748,77.6002133,Vijaya Superspeciality Dental Hospital,2022303,Anantapur
7812341216,node,14.6751205,77.6015225,Antharyami Children Speciality Hospital,2022303,Anantapur
7812341217,node,14.675438,77.602889,Sri Amrutha Hospital,2022303,Anantapur
7812341219,node,14.674881,77.603137,Lakshmi Jayanth ENT Hospital,2022303,Anantapur
7812341221,node,14.677042,77.605898,Srinivasa Multi Speciality Hospital,2022303,Anantapur
7812341222,node,14.675157,77.6031172,Gayatri Hospital,2022303,Anantapur
7812341223,node,14.6718944,77.6010944,Ridhi Heart & Skin Hospital,2022303,Anantapur
7812341224,node,14.674892,77.603134,Lakshmi Narasimha ENT Hospital,2022303,Anantapur
7812341225,node,14.6750803,77.6017562,Dento Care Super Speciality Dental Hospital,2022303,Anantapur
7812341226,node,14.6754935,77.6026056,Lakshmi Hospital,2022303,Anantapur
7812341229,node,14.6739248,77.6030239,Mahathi Hospital,2022303,Anantapur
7812341230,node,14.675331,77.6022958,Mallikarjuna Super Speciality Dental Hospital,2022303,Anantapur
7812341232,node,14.6748822,77.6033124,Sathish Neurologist and Orthopaedic,2022303,Anantapur
7812341233,node,14.676572,77.6025553,Vijaya Shankar Hospital,2022303,Anantapur
7812341236,node,14.6734191,77.6073232,Dr. Ksar Gaffoor Hospitals,2022303,Anantapur
7812341237,node,14.6779256,77.6025896,Partha Dental Hospital,2022303,Anantapur
7812341238,node,14.6763777,77.6023144,K.C. Ramanna Hospital,2022303,Anantapur
7812341239,node,14.6727286,77.601181,Dr. Akbar Eye Hospital,2022303,Anantapur
7812341240,node,14.6756197,77.6026491,Dhanvanthri Hospital,2022303,Anantapur
7812341241,node,14.6738664,77.60192,Sree Nidhi Hospital,2022303,Anantapur
7812341242,node,14.674618,77.6029121,Children Hospital,2022303,Anantapur
7812341243,node,14.674382,77.6013832,Sai Rathna Hospital,2022303,Anantapur
7812341244,node,14.67474,77.60143,Sree Srinivasa Gastro & Liver Hospital,2022303,Anantapur
7812341245,node,14.6758388,77.6054945,Jabilli Children Hospital,2022303,Anantapur
7812341246,node,14.67534,77.603851,Sudarsana Hospital,2022303,Anantapur
7812341249,node,14.676616,77.602243,Balaji Dental Hospital,2022303,Anantapur
7812341252,node,14.673943,77.602134,Sri Sai Lakshmi Multi Speciality Hospital,2022303,Anantapur
7812341253,node,14.6741246,77.6021387,Sree Nethra Eye Hospital,2022303,Anantapur
7812341255,node,14.677728,77.60443,Sri Sai Apollo Dental Hospital,2022303,Anantapur
7812341256,node,14.6745528,77.6018289,Surya Hospital,2022303,Anantapur
7812341257,node,14.6711794,77.6012746,Malvina Hospital,2022303,Anantapur
7812341258,node,14.6744872,77.6011447,Sri Dhanvantari Multispeciality Ayurveda Hospital,2022303,Anantapur
7812341263,node,14.6737041,77.6040551,Obulaiah Hospital,2022303,Anantapur
7812341266,node,14.674631,77.604959,Chinnari Hospital,2022303,Anantapur
7812341267,node,14.6727455,77.6031448,Arun Childrens Hospital,2022303,Anantapur
7812341270,node,14.6814977,77.6104953,Government Hospital,2022303,Anantapur
7812341272,node,14.6715312,77.6088574,SR Multi Speciality Hospital,2022303,Anantapur
7812518689,node,14.681152,77.6054006,Satya Sai Dental Hospital,2022303,Anantapur
7812518691,node,14.6795381,77.6018548,Sri Krishna Dental Hospital,2022303,Anantapur
7812518692,node,14.6841166,77.6021672,Snehalatha Hospital,2022303,Anantapur
7812518693,node,14.682272,77.602304,Hari Prasad ENT Hospital,2022303,Anantapur
7812518694,node,14.6875232,77.5990348,Leela Dental Hospital,2022303,Anantapur
7812518695,node,14.687422,77.596565,Ahmed Multi Speciality Hospital,2022303,Anantapur
7812518697,node,14.6899573,77.5978005,CMN Hospitals,2022303,Anantapur
7812518698,node,14.6818639,77.6007343,Samira Hospital,2022303,Anantapur
7812518699,node,14.677622,77.599159,Dr. Kethu Buchi Reddy Hospital,2022303,Anantapur
7812518700,node,14.6822797,77.6012299,Gokul Ayurvedic Hospitals,2022303,Anantapur
7812518701,node,14.6889521,77.6013458,Shreya Hospital,2022303,Anantapur
7812518702,node,14.6877701,77.601539,Care & Cure Hospitals,2022303,Anantapur
7812518703,node,14.6819505,77.6020082,Srinivasa Dental Hospital,2022303,Anantapur
7812518704,node,14.682196,77.601547,Anantha Sai Hospital,2022303,Anantapur
7812518708,node,14.677802,77.599305,Sanjeevini Hospitals,2022303,Anantapur
7812518710,node,14.6771178,77.5990232,Pavan Sai Netralayam,2022303,Anantapur
7812518711,node,14.6773826,77.5994316,Varun Hospital,2022303,Anantapur
7812518713,node,14.680331,77.604346,Amma Children's Hospital,2022303,Anantapur
7812518714,node,14.680642,77.600867,Sree Anusha Ortho Care,2022303,Anantapur
7812518715,node,14.6804572,77.5968981,Bhaskar Super Speciality Dental Hospital,2022303,Anantapur
7812518716,node,14.683374,77.602033,K.M. Hospital,2022303,Anantapur
7812518718,node,14.6822561,77.6003613,Srinivasa Neuro & Multi Speciality Hospital,2022303,Anantapur
7812518719,node,14.679912,77.602245,Vasan Eye Care,2022303,Anantapur
7812518721,node,14.6875913,77.5977669,SVN Multispeciality Hospital,2022303,Anantapur
7812518722,node,14.685241,77.599033,LMR Multispeciality Hospital,2022303,Anantapur
7812518725,node,14.6831972,77.5991788,Rainbow Children's Hospital,2022303,Anantapur
7812518726,node,14.687877,77.600607,Chandra Super Speciality Hospital,2022303,Anantapur
7812518727,node,14.6813081,77.5994486,S.V. Hospital,2022303,Anantapur
7812518728,node,14.6792369,77.6018969,Varsha Hospital,2022303,Anantapur
7812518729,node,14.6809745,77.6037917,Akshaya Hospital,2022303,Anantapur
7812518730,node,14.6880445,77.6011343,Kraanthi Hospital,2022303,Anantapur
7812518732,node,14.6882825,77.5986645,Sisucare Hospital,2022303,Anantapur
7812518733,node,14.6853882,77.6009045,Dhruva Dental Hospital,2022303,Anantapur
7812518735,node,14.680889,77.604053,Sri Sai Vishnu Hospital,2022303,Anantapur
7812518737,node,14.689727,77.597392,Sushrutha Ayurvedic Hospital,2022303,Anantapur
7812518738,node,14.678852,77.601024,Sri Varalakshmi Eye Hospital,2022303,Anantapur
7812518739,node,14.6853275,77.6015407,Sri Pranamya Hospital,2022303,Anantapur
7812518740,node,14.686302,77.598499,Life Line Hospital,2022303,Anantapur
7812518741,node,14.689296,77.601192,Sri Anand Hospital,2022303,Anantapur
7812518743,node,14.6794186,77.5999217,Karthikeya Dental Hospital,2022303,Anantapur
7812518744,node,14.6839087,77.601913,Snehalatha Hospitals,2022303,Anantapur
7812518746,node,14.686064,77.5967073,Abigna Multispeciality Hospital,2022303,Anantapur
7812518747,node,14.6855979,77.5959627,Madhavi Hospital,2022303,Anantapur
7812518751,node,14.6809112,77.6020517,Krishna Prasad Orthodontic Speciality Dental Hospital,2022303,Anantapur
7812518755,node,14.6809181,77.6037914,Prathap Dental Hospital,2022303,Anantapur
8764170439,node,14.4950167,77.5582805,"Government Hospital, Yerragunta",2022303,Anantapur
8764368682,node,14.926117,77.6224148,"Government Hospital, Illuru",2022303,Anantapur
8766745201,node,14.9773003,77.1525112,"Government Hospital, Palthur",2022303,Anantapur
8766754732,node,14.674948,77.6028246,Apple Eye Care,2022303,Anantapur
8766755577,node,14.6797754,77.6034656,Balaji Eye Care Laser Centre,2022303,Anantapur
8767018169,node,14.6554959,77.5842905,KIMS - Saveera Hospital,2022303,Anantapur
8767069714,node,15.172825,77.3664764,"Railway Hospital, Guntakal",2022303,Anantapur
1251221123,node,13.6417645,78.4526879,Rishi Valley Rural Health Center,13997864,Annamayya
6576960278,node,13.5975792,78.5303271,Arogyavaram Medical Centre,13997864,Annamayya
6758500074,node,14.0587683,78.7475753,Madhavi Nursing Home - Y.S.R.,13997864,Annamayya
6758560926,node,13.5571864,78.5093951,Bhavyas Children Hospital,13997864,Annamayya
6758868114,node,13.5578396,78.5095239,Balaji Multi Speciality Hospital,13997864,Annamayya
6761040670,node,14.0597765,78.7479937,Raviteja Nursing Home,13997864,Annamayya
6761211199,node,13.5589008,78.5084832,Desai Hospital,13997864,Annamayya
6768544466,node,13.5583989,78.5106128,Usha Speciality Hospital,13997864,Annamayya
6768545716,node,13.5546337,78.5074009,Chandra Mohan's Nursing Home,13997864,Annamayya
6768566601,node,13.554914,78.5091872,Kathasagaram Hospital,13997864,Annamayya
6768607659,node,13.559202,78.5091028,Madanapalle Hospital Pvt. Ltd,13997864,Annamayya
6768623518,node,13.5602358,78.4952438,Shantharam Hospital,13997864,Annamayya
6768623554,node,13.5516402,78.5086012,Gupta Hospital,13997864,Annamayya
6768624097,node,13.5574315,78.4998357,Viswa Orthopaedic Hospital,13997864,Annamayya
6768633025,node,13.5489088,78.4641865,Siloam Eye Centre,13997864,Annamayya
6768643194,node,13.5492256,78.503273,Emergency Hospital,13997864,Annamayya
6768656291,node,13.5507602,78.5087353,Popular Nursing Home,13997864,Annamayya
6768675494,node,13.5477771,78.5142848,Sri Kaveri Hospital,13997864,Annamayya
7113913909,node,14.0552081,79.2835502,"Government hospital, Mukkavaripalli",13997864,Annamayya
7113913911,node,14.200116,79.1569501,"Government hospital, Rajampeta;Ppu Rajampeta",13997864,Annamayya
7113913957,node,14.1864813,78.706236,"PHC, Lakkireddypalli",13997864,Annamayya
7113913981,node,14.0263924,78.5018474,"Government hospital, Galiveedu",13997864,Annamayya
7113913986,node,13.9577689,79.3541009,"Government hospital, Rly.Kodur",13997864,Annamayya
7113914017,node,14.1015304,78.5524686,"Government hospital, Nooliveedu",13997864,Annamayya
7113914020,node,13.9866471,78.9733697,"Government hospital, Rayavaram",13997864,Annamayya
7113914057,node,14.0579396,78.7477719,"Government hospital, Rayachoti",13997864,Annamayya
7113926681,node,13.5570428,78.5011042,"Area Hospital,Madanapalli",13997864,Annamayya
7113926736,node,13.9288266,78.5412358,"Government Hospital,Peddamandyam",13997864,Annamayya
7113926804,node,13.4348374,78.4080816,"Government Hospital,Chembakur",13997864,Annamayya
7113926845,node,13.819962,78.8957841,"Government Hospital,Garnimitta",13997864,Annamayya
7807338463,node,13.6541586,78.9429933,Sridevi Hospital,13997864,Annamayya
7807338466,node,13.6563378,78.9431307,Gupta Hospitals,13997864,Annamayya
7807338467,node,13.6566464,78.946348,JNN Hospital,13997864,Annamayya
7807338474,node,13.6536811,78.9503501,Jhansi Hospital,13997864,Annamayya
7807338480,node,13.6570057,78.9416181,Chinnari Hospital,13997864,Annamayya
7807338486,node,13.6539011,78.9507849,Sashi Hospital,13997864,Annamayya
7807338498,node,13.6560976,78.9465002,Sri Venkateshwara Diabetic Hospital,13997864,Annamayya
7807338504,node,13.656983,78.942022,Sri Sai Balaji Hospital,13997864,Annamayya
7807338513,node,13.654491,78.941833,Government Hospital,13997864,Annamayya
7807338519,node,13.6547859,78.9411544,Life Care Hospital,13997864,Annamayya
7807338537,node,13.6538649,78.943389,Swetha Hospital,13997864,Annamayya
7807338538,node,13.6507308,78.9476398,Rishi Ortho and Trauma Hospital,13997864,Annamayya
7808878902,node,13.5590971,78.5088061,Thippa Reddy Hospital,13997864,Annamayya
7808878908,node,13.5575366,78.500359,Sri Srinivasa Hospital,13997864,Annamayya
7808878911,node,13.558989,78.510736,N.M Reddy Hospital,13997864,Annamayya
7808878912,node,13.5588757,78.5097311,Babu Eye Hospital,13997864,Annamayya
7808878913,node,13.5600575,78.4972951,Suraksha Hospital,13997864,Annamayya
7808878917,node,13.5578523,78.5004515,Sri Vasavi Hospital,13997864,Annamayya
7808878920,node,13.549076,78.510301,MLL Hospital,13997864,Annamayya
7808878921,node,13.56382,78.499109,Sri Kalyan General Hospital,13997864,Annamayya
7808878923,node,13.5566582,78.4964469,Sunshine Hospital,13997864,Annamayya
7808878924,node,13.559772,78.4961644,Mother and Child Hospital,13997864,Annamayya
7808878928,node,13.5546467,78.5014099,Government ENT Hospital,13997864,Annamayya
7808878929,node,13.5546794,78.50889,Gauthami Skin Hospital,13997864,Annamayya
7808878931,node,13.5578937,78.5099795,Srinivasa ENT Care Centre,13997864,Annamayya
7808878939,node,13.5641994,78.5115705,Viashnavi Hospital,13997864,Annamayya
7808878943,node,13.5651517,78.5089238,K.V.R Physiocare Hospital,13997864,Annamayya
7808878944,node,13.5574625,78.5094428,Ananda Babu Hospital,13997864,Annamayya
7808878947,node,13.5588192,78.5094066,Usha Eye Hospital,13997864,Annamayya
7808878950,node,13.5533345,78.5055238,Amrutha Hospital,13997864,Annamayya
7808878952,node,13.5471788,78.5026218,Balaji Hospital,13997864,Annamayya
7808878954,node,13.5561691,78.5102123,Prasad ENT Hospital,13997864,Annamayya
7808878956,node,13.5574563,78.4999922,Sri Sai Hospital,13997864,Annamayya
7808878965,node,13.5576645,78.5092543,Dr. Sidda Reddy Eye Hospital,13997864,Annamayya
7808878969,node,13.5642089,78.4990431,G.S.R Hospital,13997864,Annamayya
7808878970,node,13.557069,78.4960046,Sri Maruthi Health Home,13997864,Annamayya
7808878972,node,13.5573879,78.4994859,Dr. V. Paul Ravi Kumar ENT Hospital,13997864,Annamayya
7808878973,node,13.5582925,78.5095343,Sri Venkateshwara Orthopaedic Hospital,13997864,Annamayya
7808878974,node,13.5576238,78.5002883,Mohan Children's Hospital,13997864,Annamayya
7808878975,node,13.5575942,78.4997369,"ESIC Hospital, Madanapalle",13997864,Annamayya
7808878978,node,13.5589649,78.5107362,Manasa Hospital,13997864,Annamayya
7808878981,node,13.553685,78.507077,MSR Orthopaedic Hospital,13997864,Annamayya
7808878985,node,13.5565918,78.500085,Citi Hospital,13997864,Annamayya
7809051896,node,14.2246175,79.1336691,Raju Health Care Centre,13997864,Annamayya
7809051902,node,14.1939372,79.1597501,Dr. Jaganmohan Ortho Hospital,13997864,Annamayya
7809051904,node,13.9611714,79.3511727,Aaradhya Children's Hospital,13997864,Annamayya
7809051908,node,14.1746615,79.3260633,Suresh Babu Hospital,13997864,Annamayya
7809051910,node,13.9536239,79.3517704,Thomas Hospital,13997864,Annamayya
7809051911,node,14.1956143,79.1616037,Sri Balaji Hospitals,13997864,Annamayya
7809051914,node,14.1959973,79.1601804,Sri Balaji Physiotherapy Hospital,13997864,Annamayya
7809051916,node,13.9622051,79.3490189,Leelavati Hospital and Diabetic Care,13997864,Annamayya
7809051918,node,14.195675,79.161653,Careplus Eye Hospital,13997864,Annamayya
7809051921,node,13.9551685,79.3513723,KK Hospital,13997864,Annamayya
7809051922,node,14.196771,79.156862,Jayagowri Hospital,13997864,Annamayya
7809051925,node,14.1978428,79.1588971,Nikhila Children Hospital,13997864,Annamayya
7809051927,node,14.1922255,79.1585841,Pavani Hospitals,13997864,Annamayya
7809051930,node,13.9548277,79.3519397,Careplus Eye Hospital,13997864,Annamayya
7809051932,node,14.1945111,79.161116,Kruthika Hospitals,13997864,Annamayya
7809051934,node,14.172312,79.330213,Y. Madhavaraju Hospital,13997864,Annamayya
7809051946,node,13.9609419,79.3513473,Dr. K. Venkateshwara Prasad Hospitals,13997864,Annamayya
7809051950,node,13.960719,79.3509521,Children's Hospital,13997864,Annamayya
7809051952,node,14.195943,79.162443,Kasigari Hospital,13997864,Annamayya
7809051953,node,14.1976907,79.1592482,Dr. GV Subba Reddy Hospital,13997864,Annamayya
7809051954,node,14.1226447,79.2093196,Chalamaiah Hospital,13997864,Annamayya
7809051957,node,14.1949639,79.1612037,Ramachandra Hospital,13997864,Annamayya
7809051959,node,13.9571164,79.3517028,Padma Vijaya Hospitals,13997864,Annamayya
7809051964,node,13.958869,79.351228,Amma Hospital,13997864,Annamayya
7809051965,node,14.1981171,79.1592723,Dr. Srihari Hospital,13997864,Annamayya
7809051967,node,14.171503,79.331833,Chandra Hospital,13997864,Annamayya
7809051971,node,13.9616087,79.35231,Sree Chaitanya Hospital,13997864,Annamayya
7809051973,node,14.1939898,79.1604207,Vishnu Integrated Hospital,13997864,Annamayya
7809051976,node,14.2017257,79.1552506,Janaki Rama Chest Hospital,13997864,Annamayya
7809051977,node,14.1948855,79.1616885,Sri Satyam Hospital,13997864,Annamayya
7809051983,node,14.1940394,79.1597618,Dr. Chandrasekhar Hospital,13997864,Annamayya
7809531351,node,14.0592412,78.7624408,MM Ali Hospital,13997864,Annamayya
7809531353,node,14.0612414,78.7485428,Children Hospital,13997864,Annamayya
7809531356,node,14.060791,78.773942,Lions Club Eye Hospital,13997864,Annamayya
7809531360,node,14.0592192,78.7491604,ms Apollo Hospital,13997864,Annamayya
7809531364,node,14.0647091,78.7529623,Naidu Hospital,13997864,Annamayya
7809531366,node,14.0601496,78.7499455,Mother Hospital,13997864,Annamayya
7809531368,node,14.0588274,78.7534633,Shifa Hospital,13997864,Annamayya
7809531372,node,14.0596414,78.74758,Vijaya Hospital,13997864,Annamayya
7809531373,node,14.0588777,78.7480506,Dr. Janardhan Reddy Hospital,13997864,Annamayya
7809531374,node,14.0599946,78.7501561,Sri Shirdi Sai Hospital,13997864,Annamayya
7809531377,node,14.059361,78.748887,Potti Janardhan Hospitals and nursery,13997864,Annamayya
7809531378,node,14.0607853,78.7527451,Government Hospital,13997864,Annamayya
7809531383,node,14.0595,78.7487754,Gandhi Hospital,13997864,Annamayya
7809531384,node,14.0584426,78.7487686,Murali Hospitals,13997864,Annamayya
7809531389,node,14.0592918,78.748216,Pramila Nursing House,13997864,Annamayya
7809531390,node,14.0595464,78.7487928,Manjunatha Hospital,13997864,Annamayya
7809531392,node,14.0492877,78.7541254,SS Hospital,13997864,Annamayya
7809531395,node,14.0601756,78.7498394,Narayana Reddy Hospital,13997864,Annamayya
7809531403,node,14.0512685,78.7517896,Amaravati Multi Speciality Hospital,13997864,Annamayya
7809531405,node,14.0581081,78.7489003,Sai Prashanthi Hospitals,13997864,Annamayya
7809531408,node,14.0607498,78.7531211,Mukhya Mantri Aarogya Kendram,13997864,Annamayya
7809531410,node,14.0588261,78.7538639,Care Hospital,13997864,Annamayya
7809531412,node,14.058863,78.747894,Shirdi Sai Hospital,13997864,Annamayya
7809531416,node,14.0583828,78.7483205,Sri Srinivasa Physio Care,13997864,Annamayya
7809531418,node,14.059147,78.7478027,Chandra Sekhar Children Hospital,13997864,Annamayya
7809531421,node,14.0591578,78.747708,Suraksha Children Hospital,13997864,Annamayya
7809531423,node,14.0716982,78.7555298,New Apollo Eye Hospitals and Opticals,13997864,Annamayya
7809531425,node,14.0541454,78.7511041,KGN Hospital,13997864,Annamayya
7809531426,node,14.058784,78.7481811,"Raja Eye Care , Opticals",13997864,Annamayya
8767515310,node,13.9571558,79.3508577,Amma Hospital,13997864,Annamayya
12595857852,node,14.0607335,78.7484393,Dr.shaik homeopathy hospitals,13997864,Annamayya
12596111390,node,14.058776,78.7487582,sri hospitals,13997864,Annamayya
829054242,way,13.778917,78.5825765,"Government Hospital,Gurramkonda",13997864,Annamayya
2059312906,node,15.7814958,80.3057942,Chakravarthi Clinic,13998258,Bapatla
2333111370,node,15.886389,80.6418625,park,13998258,Bapatla
4779530466,node,15.8289434,80.3591136,Kamakshi Care Multispeciality Hospital,13998258,Bapatla
6757283946,node,15.8158919,80.3448247,Hyma Hospital - Prakasam,13998258,Bapatla
6761071941,node,15.8232202,80.3521793,Rajyalakshmi Hospital,13998258,Bapatla
6768569992,node,15.8170835,80.3434749,Baer Hospital,13998258,Bapatla
6768616937,node,15.8264646,80.3567424,Prema Heart&Diabetic Hospital,13998258,Bapatla
6768782301,node,15.8254447,80.359607,Ravi Nursing Home,13998258,Bapatla
6771049630,node,15.8244789,80.3566834,Vijaya Nursing Home - Prakasam,13998258,Bapatla
6781897651,node,15.8269962,80.3518179,Sri Saraswathi Nursing Home,13998258,Bapatla
6781909127,node,15.9056759,80.4688346,Srinivasa Children Hospital,13998258,Bapatla
6786974623,node,15.8262911,80.3562234,Sri Sai Childrens Hospital,13998258,Bapatla
6789704903,node,15.8289968,80.3535144,Sankar Nursing Home,13998258,Bapatla
6804812105,node,15.8278472,80.1934087,G.V.K. Nursing Home,13998258,Bapatla
6810697540,node,16.0191053,80.8330491,Vyshnave Nursing Home,13998258,Bapatla
7113913923,node,15.941308,80.547922,"Governent Hospital ,Karalapalem",13998258,Bapatla
7113913927,node,15.9073001,80.4696402,"Government Hospital,Bapatla",13998258,Bapatla
7113913959,node,15.9112437,80.6695881,"Government Hospital, Nizampatnam",13998258,Bapatla
7113913996,node,16.0017899,80.7239875,"Government Hospital, Nagaram",13998258,Bapatla
7113914072,node,15.9526184,80.392944,"Government Hospital,Narasayapalem",13998258,Bapatla
7116063018,node,15.8517429,80.3868314,"Government Hospital, Chirala",13998258,Bapatla
7116063020,node,15.745876,80.171261,Government Hosiptal,13998258,Bapatla
7116063038,node,16.119676,79.9530247,"Government hospital, Santhamaguluru",13998258,Bapatla
7116063048,node,15.9653968,80.2702414,"Government Hospital, Parchuru",13998258,Bapatla
7116063060,node,15.9136319,80.1451202,"Government Hospital, Dronadula",13998258,Bapatla
7116063073,node,15.8827961,80.321163,Karamchedu Government Hospital,13998258,Bapatla
7116063079,node,15.9960541,80.1689557,"Government Hospital,Yaddanapudi",13998258,Bapatla
7116063081,node,15.9940846,80.38336,"Government Hospital , Cherukuru",13998258,Bapatla
7799990072,node,15.8998695,80.4640377,ESI Hospital,13998258,Bapatla
7799990073,node,15.907387,80.4761242,Rushi Care Hospital,13998258,Bapatla
7799990076,node,16.0189846,80.8337634,Pulse Hospitals,13998258,Bapatla
7799990080,node,16.019174,80.833149,Dr. SubbaRao Hospital,13998258,Bapatla
7799990083,node,16.1817865,80.797004,SVS Multi Speciality Health Care Hospital,13998258,Bapatla
7799990085,node,16.015633,80.8288484,Krishna Kumari Hospital,13998258,Bapatla
7799990088,node,16.0173743,80.8315933,Prakash Rao Hospital,13998258,Bapatla
7799990112,node,15.9055332,80.46896,Vijaya Eye Hospital,13998258,Bapatla
7799990114,node,16.016721,80.828911,RK Eye Hospital,13998258,Bapatla
7799990116,node,16.0169355,80.8294098,VNM Children's Hospital,13998258,Bapatla
7799990120,node,16.0152784,80.8292531,Sri Bharadwaja Ayurveda Hospital,13998258,Bapatla
7799990123,node,16.0184413,80.8284687,Maa Hospital,13998258,Bapatla
7799990126,node,15.9474692,80.5494989,Praveen Hospital,13998258,Bapatla
7799990128,node,15.9071892,80.4776921,Avanthi ENT Hospital,13998258,Bapatla
7799990130,node,15.9033002,80.467573,Bapatla Star Hospital,13998258,Bapatla
7799990132,node,16.0531814,80.6846912,Mannem Satyanarayana Hospital,13998258,Bapatla
7799990133,node,16.043349,80.695101,Edward Butler Eye Hospital,13998258,Bapatla
7799990136,node,16.0181542,80.8273448,Nalluri Hospital,13998258,Bapatla
7799990140,node,16.0183089,80.8281436,Mother Teresa Hospital,13998258,Bapatla
7799990153,node,16.0165375,80.830849,AIMS Hospital,13998258,Bapatla
7800531449,node,15.825592,80.358876,Children's Nursing Home,13998258,Bapatla
7800531450,node,15.813511,79.97082,Praja Vaidyasala,13998258,Bapatla
7800531451,node,15.8064201,79.9754961,Navodaya Nursing Home,13998258,Bapatla
7800531452,node,15.826068,80.355751,Sri Malyadri ENT Hospital,13998258,Bapatla
7800531453,node,15.8287603,80.3550152,Sunetra Eye Hospital & Micro Surgery Centre,13998258,Bapatla
7800531455,node,15.82845,80.356114,Sydulu Chowdary Hospital,13998258,Bapatla
7800531460,node,15.8107428,79.9725123,Hrudaya Multi Speciality Hospital,13998258,Bapatla
7800531461,node,15.804482,79.977265,Ranga Rao Hospital,13998258,Bapatla
7800531462,node,15.833896,80.3613738,Dr.K.Venkateswarlu Hospital,13998258,Bapatla
7800531464,node,15.8292895,80.3543257,Vennela Multi Speciality Children Hospital,13998258,Bapatla
7800531465,node,15.8267584,80.3576333,Uma Eye Hospital,13998258,Bapatla
7800531466,node,15.914445,80.1414214,Koteswararao Hospital,13998258,Bapatla
7800531467,node,15.8207157,80.3500836,Surya Hospital,13998258,Bapatla
7800531469,node,15.939405,80.17027,RMP Famous Hospital,13998258,Bapatla
7800531470,node,15.8197571,80.3484199,Srinivasa Hospital,13998258,Bapatla
7800531475,node,15.887488,80.3133633,Venkata Lakshmi Eye Centre,13998258,Bapatla
7800531476,node,15.8253327,80.3611191,"Area Hospital, Chirala",13998258,Bapatla
7800531478,node,15.7234321,80.0186644,Jayanthi Nursing Home,13998258,Bapatla
7800531480,node,15.813755,80.341183,Viswas Hospitals,13998258,Bapatla
7800531481,node,15.8127608,79.9721668,Varalakshmi Memorial Eye Hospital,13998258,Bapatla
7800531482,node,15.825658,80.3591261,Harinath Children Hospital,13998258,Bapatla
7800531483,node,15.986731,80.103838,Ramu Hospital,13998258,Bapatla
7800531486,node,15.8239706,80.3613435,Suraksha Hospitals,13998258,Bapatla
7800531487,node,16.0140524,79.9094482,Dr. Mallikarjuna Hospital,13998258,Bapatla
7800531488,node,15.8270883,80.3564575,Sri Sai Suguna Hospital,13998258,Bapatla
7800531490,node,15.808986,79.976784,Sivani Children Hospital,13998258,Bapatla
7800531492,node,15.9036937,80.1972695,Radha Krishna Hospital,13998258,Bapatla
7800531496,node,15.8137564,79.9709388,Kranthi Nursing Home,13998258,Bapatla
7800531497,node,15.8265683,80.3733442,Nature Cure Hospital,13998258,Bapatla
7800531499,node,15.827423,80.357331,Amma Eye Hospital,13998258,Bapatla
7800531500,node,15.80665,79.975476,Dr. Satyanarayana Hospital,13998258,Bapatla
7800531501,node,15.8096419,79.9763276,Shifaa Nursing Home,13998258,Bapatla
7800531502,node,15.8176346,80.3447895,Solomon Hospital,13998258,Bapatla
7800531503,node,15.9049534,80.1951826,Radha Krishna Ayurvedic Hospital,13998258,Bapatla
7800531505,node,15.8264774,80.3562389,Nagaratna Hospital,13998258,Bapatla
7800531506,node,15.938829,80.169086,Homeopathy Hospital,13998258,Bapatla
7800531508,node,15.8269915,80.3538796,Aditya Nursing Home,13998258,Bapatla
7800531509,node,15.8239314,80.3583155,Ramesh Diabetic Care Center,13998258,Bapatla
7800531514,node,15.9865451,80.1038108,Balaji Hospital,13998258,Bapatla
7800531515,node,15.8840748,80.3183693,Dr. Anjaniulu's Hospital,13998258,Bapatla
7800531517,node,16.0145,80.058152,Government Ayurvedic Hospital,13998258,Bapatla
7800531519,node,15.8037558,79.9775207,Sri Bhavya Multi Speciality Hospital,13998258,Bapatla
7800531520,node,15.8259559,80.3587118,Nagarjuna Eye Hospital,13998258,Bapatla
7800531522,node,15.826139,80.358515,Gorantla Super Speciality Hospital,13998258,Bapatla
7800531524,node,15.9671511,80.2750025,Ramu Hospital,13998258,Bapatla
7800531525,node,15.904781,80.195148,Dr. Hanumacharyulu's Hospital,13998258,Bapatla
7800531526,node,15.8264613,80.3547826,I.C.M. Ayurvedic Hospital,13998258,Bapatla
7800531529,node,15.8263654,80.3583441,Venkateswara Skin Hospital,13998258,Bapatla
7800531531,node,15.7413201,80.0802676,Hrudayanath General Hospital,13998258,Bapatla
7800531532,node,15.939583,80.169966,Bavanacharya Hospital,13998258,Bapatla
7800531533,node,15.8267122,80.3572988,Ravi Kumar Children Hospital,13998258,Bapatla
7800531536,node,15.8273484,80.357245,SKR Icon Super Speciality Hospital,13998258,Bapatla
7800531537,node,15.826498,80.356952,Sri Srinivasa Hospital,13998258,Bapatla
7800531538,node,15.824169,80.370488,Triveni Hospital,13998258,Bapatla
7800531540,node,15.8266928,80.3519719,Bapuji Hospital,13998258,Bapatla
7800531541,node,15.8145042,80.3431431,Hyma Hospital,13998258,Bapatla
8784306110,node,15.9713578,80.5107898,Dr. Sajja Chandramouli Hospital,13998258,Bapatla
11204210643,node,15.9021512,80.457982,GOWTHAMI RASAYANASALA,13998258,Bapatla
12253041953,node,15.9075268,80.4761434,RUSHI CARE HOSPITAL,13998258,Bapatla
12860452444,node,15.9015795,80.4677548,Rachana Eye Hospital,13998258,Bapatla
12860770721,node,15.9057821,80.4746881,Wins Hospital,13998258,Bapatla
13204639275,node,15.7818175,80.3070018,hospital,13998258,Bapatla
1246855363,way,15.8536366,80.3927659,ground,13998258,Bapatla
2845696133,node,13.2218484,79.0999566,PVR hospetal,2022304,Chittoor
2845696146,node,13.2099296,79.0993227,milatry hospetal,2022304,Chittoor
6758417361,node,13.2158743,79.1021472,Dr. V. K. R. Nursing Home and Scan Centre,2022304,Chittoor
6758586267,node,13.2827098,78.9555833,Apollo Hospitals - Chittoor,2022304,Chittoor
6758630061,node,13.2159337,79.0970866,Lakshmi Hospital,2022304,Chittoor
6758630982,node,13.3691762,78.5708821,Balaji Hospital,2022304,Chittoor
6758703921,node,13.3684337,78.5725169,Vijaya Nursing Home,2022304,Chittoor
6768411524,node,13.2155466,79.1089527,S.M.Clinic,2022304,Chittoor
6768769654,node,13.2170937,79.107399,Ravi Nursing Home - Chitoor,2022304,Chittoor
6768815407,node,13.2145086,79.1093127,Sreelatha Modern Eye Hospital And Research Centre,2022304,Chittoor
6770865139,node,12.750135,78.3428407,Sri Priya Nursing Home,2022304,Chittoor
6770879715,node,12.7509996,78.3411388,Rani Rathnam's R.R. Hospital,2022304,Chittoor
6770891704,node,12.7896372,78.3647355,P.E.S. Institute Of Medical Sciences and Research's Hospital,2022304,Chittoor
6781942690,node,13.3191725,79.5900826,C.S.I. Hospital,2022304,Chittoor
7113926658,node,13.414874,78.577585,"Government Hospital,Mudipapanapalli",2022304,Chittoor
7113926661,node,12.8587752,78.342049,"Government Hospital, Rallabuduguru",2022304,Chittoor
7113926664,node,13.1059726,78.5669742,"Government Hospital,Theertham",2022304,Chittoor
7113926690,node,13.3852204,79.7081259,"Government E.N.T Hospital,Nindra",2022304,Chittoor
7113926693,node,13.433058,78.690898,"Government Hospital,Chowdepalli",2022304,Chittoor
7113926696,node,13.149657,78.672192,"Government Hospital,Kolamasanapalli",2022304,Chittoor
7113926702,node,13.2576071,79.0080304,"Government Hospital,Thavanampalle",2022304,Chittoor
7113926727,node,13.2178483,79.0927682,District Hospital,2022304,Chittoor
7113926733,node,13.5619108,79.001873,"Government Hospital,Kallur",2022304,Chittoor
7113926739,node,13.6764023,79.0491084,"Government Hospital,Rompicherla",2022304,Chittoor
7113926769,node,13.204506,79.0850073,"Government Hospital,Kajoor",2022304,Chittoor
7113926772,node,12.9584266,78.5363344,"Government Hospital,Ogu",2022304,Chittoor
7113926775,node,13.329116,78.730917,"Government Hospital,Rayalapeta",2022304,Chittoor
7113926777,node,13.000841,78.489338,"Government Hospital, V.Kota",2022304,Chittoor
7113926813,node,12.9003629,78.4842043,"Government Hospital,Ramakuppam",2022304,Chittoor
7113926815,node,13.1883682,79.2639597,"Government Hospital,Thugundram",2022304,Chittoor
7113926833,node,13.3419768,79.5799458,"Area Hospital,Nagari",2022304,Chittoor
7113926842,node,12.765146,78.349579,"Government General Hospital,Kuppam",2022304,Chittoor
7806946519,node,13.3217582,79.586526,Shanthi Hospital,2022304,Chittoor
7806946520,node,13.3193812,79.5851011,Nagari 24 Hours Hospital,2022304,Chittoor
7806946524,node,13.3240786,79.5863327,Shri Venkateshwara Children's Hospital,2022304,Chittoor
7806946565,node,13.321963,79.585488,Vijay Hospital,2022304,Chittoor
7806946570,node,13.3216925,79.5870168,SS Hospital,2022304,Chittoor
7806946573,node,13.3182238,79.5859204,Srinivasa Hospital,2022304,Chittoor
7806946577,node,13.3250319,79.5868786,Narayana Eye Hospital,2022304,Chittoor
7807280429,node,13.2163182,79.1075207,"Suraksha Childrens Hospital, Chittoor",2022304,Chittoor
7807338465,node,13.2150944,79.0991254,Dr. Janardhan Naidu Hospital,2022304,Chittoor
7807338468,node,13.2173477,79.1078547,Vishnu Children's Hospital,2022304,Chittoor
7807338482,node,13.216811,79.099105,Mamata Hospital,2022304,Chittoor
7807338488,node,13.2205567,79.0994662,Kiran Multi Speciality Hospital,2022304,Chittoor
7807338489,node,13.2169295,79.1078126,S. Mohan Reddy Child Care Hospital,2022304,Chittoor
7807338492,node,13.2080065,79.0990804,Dr. Mohan's Diabetes Specialities Centre,2022304,Chittoor
7807338503,node,13.2514997,79.1151749,Apollo Hospitals,2022304,Chittoor
7807338505,node,13.218036,79.117837,Chittoor Eye Hospital,2022304,Chittoor
7807338506,node,13.2116293,79.100778,Police Medicare Centre,2022304,Chittoor
7807338510,node,13.226816,79.108667,Aashraya Multi Speciality Hospital,2022304,Chittoor
7807338516,node,13.2217503,79.0977016,Nalam Ayurvedam,2022304,Chittoor
7807338522,node,13.217177,79.0942692,Global Multi Speciality Hospital,2022304,Chittoor
7807338525,node,13.2171261,79.0954603,Jhanvi Multi Speciality Ayurvedic Hospital,2022304,Chittoor
7807338528,node,13.221449,79.1006792,Life Line Hospitals,2022304,Chittoor
7807338529,node,13.2219984,79.0991984,Venkata Sai Hospital,2022304,Chittoor
7807338531,node,13.1992257,79.0936341,Shri Venkateshwara Hospital,2022304,Chittoor
7807338532,node,13.2161565,79.0974352,Narayana Reddy Hospital,2022304,Chittoor
7807338535,node,13.217388,79.105332,Aarogya Hospital,2022304,Chittoor
7807338536,node,13.2171664,79.0937338,Sai Balaji Hospital,2022304,Chittoor
7808878901,node,13.2065685,78.7415468,Jeevan Hospitals,2022304,Chittoor
7808878903,node,12.7495407,78.3432714,Ravi Childrens Hospital,2022304,Chittoor
7808878904,node,13.201798,78.745472,Sree Narayana Dhanwantari Vaidyashala,2022304,Chittoor
7808878905,node,13.0018791,78.4858114,Moksha Surgical and Diabetic Care Hospital,2022304,Chittoor
7808878907,node,13.368038,78.5718393,Dr. Murali Hospital,2022304,Chittoor
7808878909,node,13.2027794,78.7457053,T.G. Jayabharathamma Hospital,2022304,Chittoor
7808878915,node,13.202662,78.7478575,Childrens Naati Hospital,2022304,Chittoor
7808878916,node,12.8677582,78.4014231,Government Hospital,2022304,Chittoor
7808878919,node,12.8689791,78.4024085,C.H.R Hospital,2022304,Chittoor
7808878922,node,12.7485951,78.3377806,Emaus Eye Hospital,2022304,Chittoor
7808878925,node,13.0304783,78.5111348,Bharath Hospital,2022304,Chittoor
7808878927,node,13.3702195,78.5680931,Teja Hospital,2022304,Chittoor
7808878935,node,12.7489436,78.3306079,Raviraj Hospital,2022304,Chittoor
7808878937,node,13.3543919,78.5816721,Bhagya Hospital,2022304,Chittoor
7808878938,node,13.3612057,78.5734805,Eshwaramma Hospital,2022304,Chittoor
7808878940,node,12.7531582,78.3446506,Sri Venkateshwara Hospital,2022304,Chittoor
7808878942,node,12.750626,78.3455532,Ratna Hospital,2022304,Chittoor
7808878945,node,13.36422,78.5711066,Kashinath Hospital,2022304,Chittoor
7808878946,node,13.368326,78.5704553,Siva Prasad Hospital,2022304,Chittoor
7808878949,node,13.3689077,78.5709353,Family Hospital,2022304,Chittoor
7808878951,node,13.0025321,78.4844383,A.K. Childrens Hospital,2022304,Chittoor
7808878953,node,13.1921403,78.7015407,Emmaus Swiss Referral Hospital,2022304,Chittoor
7808878955,node,13.3640457,78.5693599,Suguna Hospital,2022304,Chittoor
7808878962,node,13.2178534,78.731953,Government Hospital,2022304,Chittoor
7808878963,node,12.7502929,78.3416682,BRD Memorial Hospital,2022304,Chittoor
7808878964,node,13.2033182,78.7471226,We Care Multi Speciality Hospital,2022304,Chittoor
7808878966,node,13.3684358,78.5708927,Spandana Hospital,2022304,Chittoor
7808878976,node,13.2014746,78.7489061,Puttur Bone Setting Hospital,2022304,Chittoor
7808878980,node,13.3671875,78.5711587,Suthrama Eye Hospital,2022304,Chittoor
7808878982,node,13.364647,78.571505,Sri Lakshmi Surgical and Maternity Nursing Home,2022304,Chittoor
8770757336,node,12.7458197,78.3423029,"Area Hospital ,Kuppam",2022304,Chittoor
8770798579,node,13.2717979,79.1198605,RVS Hospitals,2022304,Chittoor
8771011133,node,13.4475717,79.3689854,"Government Hospital, Pachikapallam",2022304,Chittoor
8771380736,node,13.1301952,79.1373385,Christian Mission Hospital,2022304,Chittoor
8771465641,node,12.6619751,78.4126968,"Government Hospital, Ponnamgur",2022304,Chittoor
280454610,way,13.2167749,79.0984287,Dr. Ramalakshmi Nursing Home,2022304,Chittoor
280454634,way,13.2184778,79.0987723,miunicipal metarnity center,2022304,Chittoor
280454637,way,13.2182439,79.0994985,preetham hospetal,2022304,Chittoor
829070611,way,13.1981934,78.7484658,Hospital Palamaner,2022304,Chittoor
1167606851,way,13.1328034,79.1122029,Christian Medical College Hospital,2022304,Chittoor
2790254280,node,16.5868473,82.0076599,Uma Devi Hospital,13999603,Dr. B. R. Ambedkar Konaseema
2790256731,node,16.5875812,82.0085853,"Area Hospital,Amalapuram",13999603,Dr. B. R. Ambedkar Konaseema
6757258206,node,16.7165678,81.8946701,Sree Sravana Nursing Home,13999603,Dr. B. R. Ambedkar Konaseema
6758436825,node,16.8341812,82.031495,Kamala Nursing Home - East Godavari,13999603,Dr. B. R. Ambedkar Konaseema
6768488767,node,16.8344379,82.0293063,Adarsh Nursing Home,13999603,Dr. B. R. Ambedkar Konaseema
6768492124,node,16.5911227,82.022417,Konaseema Institute Of Medical Sciences,13999603,Dr. B. R. Ambedkar Konaseema
6768564600,node,16.4062317,81.8023096,Sri Sankar Nursing Home,13999603,Dr. B. R. Ambedkar Konaseema
6770869017,node,16.8617414,81.932555,Srinivasa Nursing Home,13999603,Dr. B. R. Ambedkar Konaseema
6773569258,node,16.5790421,82.0003371,Rohini Mother and Child Care Hospital,13999603,Dr. B. R. Ambedkar Konaseema
6776285670,node,16.7553523,81.8357702,Vijaya Nursing Home - Ravulapalem,13999603,Dr. B. R. Ambedkar Konaseema
6776483685,node,16.7916484,82.0602268,Sri Bhimeshwara Hospital,13999603,Dr. B. R. Ambedkar Konaseema
6778549241,node,16.8686565,81.9298325,Shanthi Childrens Hospital,13999603,Dr. B. R. Ambedkar Konaseema
6778612206,node,16.9051933,82.0006885,Dr.K.V.R.Hospital,13999603,Dr. B. R. Ambedkar Konaseema
6781956336,node,16.4150093,81.8069753,Susrutha Surgical and Maternity Hospital,13999603,Dr. B. R. Ambedkar Konaseema
6781978640,node,16.8628978,81.9285927,Subbarayudu Memorial Nursing Home,13999603,Dr. B. R. Ambedkar Konaseema
6787376522,node,16.5701846,81.9993018,Adarsha Hospital,13999603,Dr. B. R. Ambedkar Konaseema
6792007707,node,16.7564008,81.8382452,Sri Venkateswara Nursing Home,13999603,Dr. B. R. Ambedkar Konaseema
6801392693,node,16.5792394,82.006423,Sai Leela Orthopaedic Hospital,13999603,Dr. B. R. Ambedkar Konaseema
6801393409,node,16.7922017,82.0622519,Sri Madhavananda Speciality Hospital,13999603,Dr. B. R. Ambedkar Konaseema
6807297813,node,16.428272,81.8339315,VRD Care Hospital,13999603,Dr. B. R. Ambedkar Konaseema
7116293041,node,16.6952759,82.1319082,"Government Hospital, Serulanka",13999603,Dr. B. R. Ambedkar Konaseema
7116293046,node,16.6403283,82.1659856,"Government Hospital, Kesanakurru",13999603,Dr. B. R. Ambedkar Konaseema
7116293065,node,16.444261,81.982303,"Government Hospital,Bendamurlanka",13999603,Dr. B. R. Ambedkar Konaseema
7116293075,node,16.5531738,82.093821,"Government Hospital,Uppalaguptam",13999603,Dr. B. R. Ambedkar Konaseema
7116293090,node,16.7508039,82.118225,"Government Hospital,Pekeru",13999603,Dr. B. R. Ambedkar Konaseema
7116293093,node,16.6310466,81.9033168,"Government Hospital, Narendrapuram",13999603,Dr. B. R. Ambedkar Konaseema
7116293097,node,16.8241974,82.0612629,"Government General Hospital,Vella",13999603,Dr. B. R. Ambedkar Konaseema
7116293101,node,16.839997,81.848703,"Government Hospital,Choppella",13999603,Dr. B. R. Ambedkar Konaseema
7116293119,node,16.9003565,82.0020336,"Government Hospital, Rayavaram",13999603,Dr. B. R. Ambedkar Konaseema
7116293131,node,16.5465379,81.9849631,"Government Hospital,Peruru",13999603,Dr. B. R. Ambedkar Konaseema
7116293134,node,16.632073,82.138508,"Government Hospital,Kothalanka",13999603,Dr. B. R. Ambedkar Konaseema
7116293161,node,16.6837256,81.9467123,"Government Hospital,Vanapalli",13999603,Dr. B. R. Ambedkar Konaseema
7116293167,node,16.8332614,82.0317054,"Area Hospital, Ramachandrapuram",13999603,Dr. B. R. Ambedkar Konaseema
7116293177,node,16.718281,81.894087,"Government Hospital,Kothapeta",13999603,Dr. B. R. Ambedkar Konaseema
7116293181,node,16.586771,82.068169,"Goverment Hospital, Bhimanapalli",13999603,Dr. B. R. Ambedkar Konaseema
7116293189,node,16.7349887,82.0795379,"Government Hospital,Dangeru",13999603,Dr. B. R. Ambedkar Konaseema
7116293205,node,16.773785,81.831025,"Government Hospital,Vubalanka",13999603,Dr. B. R. Ambedkar Konaseema
7116293208,node,16.4041734,81.7574992,"Government Hospital, Sakhinetipalli",13999603,Dr. B. R. Ambedkar Konaseema
7790467510,node,16.6438553,82.1087468,Dr. Chinna Rao Hospital,13999603,Dr. B. R. Ambedkar Konaseema
7790467525,node,16.6426968,82.1061977,Dr. Chinnabbai Gari Hospital,13999603,Dr. B. R. Ambedkar Konaseema
7790467526,node,16.642228,82.10292,Saranya Hospital,13999603,Dr. B. R. Ambedkar Konaseema
7790661651,node,16.8347423,82.0308139,Surya Hospital,13999603,Dr. B. R. Ambedkar Konaseema
7790661657,node,16.8759375,81.9290081,Narayana Reddy Hospital,13999603,Dr. B. R. Ambedkar Konaseema
7790661658,node,16.8441822,82.0151417,Leprosy Hospital,13999603,Dr. B. R. Ambedkar Konaseema
7790661671,node,16.837938,82.026117,Sobha Hospital,13999603,Dr. B. R. Ambedkar Konaseema
7790661676,node,16.9056458,82.0011491,Sri Harsha Dental Hospital,13999603,Dr. B. R. Ambedkar Konaseema
7790661695,node,16.8661761,81.9276364,Arunachala ENT Hospital,13999603,Dr. B. R. Ambedkar Konaseema
7790661698,node,16.9104202,82.0008836,Chanakya Hospital,13999603,Dr. B. R. Ambedkar Konaseema
7790661704,node,16.8371612,82.0247558,Sujatha Hospital,13999603,Dr. B. R. Ambedkar Konaseema
7790661708,node,16.8609796,81.9295714,Dr. Akkala Malleswaralingam Nursing Home,13999603,Dr. B. R. Ambedkar Konaseema
7790661711,node,16.8593146,81.9257348,Bobba Vijayalakshmi Hospital,13999603,Dr. B. R. Ambedkar Konaseema
7790661712,node,16.859357,81.9256476,Sri Sai Eye Hospital,13999603,Dr. B. R. Ambedkar Konaseema
7791145207,node,16.7574859,81.8391446,Sri Surya Hospital,13999603,Dr. B. R. Ambedkar Konaseema
7791145208,node,16.568567,81.998847,Sudheer Hospital,13999603,Dr. B. R. Ambedkar Konaseema
7791145209,node,16.569978,81.9990171,Satya Sai ENT Hospital,13999603,Dr. B. R. Ambedkar Konaseema
7791145211,node,16.410161,81.8046735,Santha Physiotherapy Hospital,13999603,Dr. B. R. Ambedkar Konaseema
7791145212,node,16.479971,81.8443103,Jayalakshmi Children's Hospital,13999603,Dr. B. R. Ambedkar Konaseema
7791145216,node,16.571121,82.002071,Sanjeevini Children's Hospital,13999603,Dr. B. R. Ambedkar Konaseema
7791145217,node,16.5851656,82.007179,Salaam Hospital,13999603,Dr. B. R. Ambedkar Konaseema
7791145219,node,16.4764214,81.8374778,Government Hospital,13999603,Dr. B. R. Ambedkar Konaseema
7791145221,node,16.5773422,82.0017969,Amma Hospital,13999603,Dr. B. R. Ambedkar Konaseema
7791145222,node,16.4789716,81.8444075,Sri Lalitha Hospital,13999603,Dr. B. R. Ambedkar Konaseema
7791145223,node,16.637229,81.952415,Deevena Hospital,13999603,Dr. B. R. Ambedkar Konaseema
7791145224,node,16.498316,81.880061,Veeraswamy Hospital,13999603,Dr. B. R. Ambedkar Konaseema
7791145227,node,16.57314,82.003191,Sri Krishna Orthopaedic Multispeciality Hospital,13999603,Dr. B. R. Ambedkar Konaseema
7791145229,node,16.569651,82.0000979,Sravani Women And ENT Hospital,13999603,Dr. B. R. Ambedkar Konaseema
7791145234,node,16.4970577,81.8826303,Hussain Hospital,13999603,Dr. B. R. Ambedkar Konaseema
7791145235,node,16.4743007,81.8362628,M.D. Hospital,13999603,Dr. B. R. Ambedkar Konaseema
7791145236,node,16.568416,81.999206,Sai Viswas General Hospital,13999603,Dr. B. R. Ambedkar Konaseema
7791145239,node,16.5741607,82.0029529,Naga Surya Mother And Children Hospital,13999603,Dr. B. R. Ambedkar Konaseema
7791145240,node,16.4094034,81.8024889,Aksha Multispeciality Dental Hospital,13999603,Dr. B. R. Ambedkar Konaseema
7791145242,node,16.40582,81.8028092,M.D Hospital,13999603,Dr. B. R. Ambedkar Konaseema
7791145243,node,16.56891,82.0034299,Ganesh ENT & Maternity Hospital,13999603,Dr. B. R. Ambedkar Konaseema
7791145244,node,16.474891,81.838962,ENT Hospital,13999603,Dr. B. R. Ambedkar Konaseema
7791145245,node,16.5707883,81.9998375,Sri Polisetty Swamy Naidu Memorial Hospital,13999603,Dr. B. R. Ambedkar Konaseema
7791145246,node,16.757673,81.838703,Niharika Hospital,13999603,Dr. B. R. Ambedkar Konaseema
7791145247,node,16.597009,81.939513,Balla Pattilingam Trust Hospital,13999603,Dr. B. R. Ambedkar Konaseema
7791145248,node,16.5852306,81.9506319,Women's Hospital,13999603,Dr. B. R. Ambedkar Konaseema
7791145249,node,16.7607318,82.0034362,Government Hospital,13999603,Dr. B. R. Ambedkar Konaseema
7791145252,node,16.4101239,81.8043797,Laxmi Ayurvedic Hospital,13999603,Dr. B. R. Ambedkar Konaseema
7791145253,node,16.7437659,81.9223639,St. Anns Hospital,13999603,Dr. B. R. Ambedkar Konaseema
7791145254,node,16.754053,81.8416833,Bhavani Multi Speciality Hospital,13999603,Dr. B. R. Ambedkar Konaseema
7791145255,node,16.4000096,81.8090667,Subbama Christian Hospital,13999603,Dr. B. R. Ambedkar Konaseema
7791145256,node,16.4098187,81.8034599,Sri Jana Sankarayya Hospital,13999603,Dr. B. R. Ambedkar Konaseema
7791145257,node,16.571004,81.9993335,Manasa Hospital,13999603,Dr. B. R. Ambedkar Konaseema
7791145259,node,16.4933479,81.8746964,MS Hospital,13999603,Dr. B. R. Ambedkar Konaseema
7791145260,node,16.501336,81.8787158,Prasanthi Maternity Hospital,13999603,Dr. B. R. Ambedkar Konaseema
7791145261,node,16.4090094,81.8029395,Vijaya Hospital,13999603,Dr. B. R. Ambedkar Konaseema
7791145263,node,16.571991,82.0010708,Satya Nethralayam Eye Hospital,13999603,Dr. B. R. Ambedkar Konaseema
7791145264,node,16.471969,81.8360432,Lakshmi Speciality Hospital,13999603,Dr. B. R. Ambedkar Konaseema
7791145266,node,16.5775784,82.0044178,J. P. Hospitals,13999603,Dr. B. R. Ambedkar Konaseema
7791145267,node,16.4050357,81.8018945,Bhaskar Children's Hospital,13999603,Dr. B. R. Ambedkar Konaseema
7791145268,node,16.4808164,81.8446561,Latha Hospital,13999603,Dr. B. R. Ambedkar Konaseema
7791145269,node,16.482007,81.845461,Surya Hospital,13999603,Dr. B. R. Ambedkar Konaseema
7791145270,node,16.5872974,82.0067029,Susmitha Mother And Child Hospital,13999603,Dr. B. R. Ambedkar Konaseema
7791145271,node,16.47437,81.8381704,Ganga Raju Hospital,13999603,Dr. B. R. Ambedkar Konaseema
8793756082,node,16.6879787,82.0022622,"Government Hospital, Veeravallipalem",13999603,Dr. B. R. Ambedkar Konaseema
8793931696,node,16.5343826,81.8713604,"Government Hospital, Nagullanka",13999603,Dr. B. R. Ambedkar Konaseema
8794188882,node,16.761235,81.8412258,Sri Vijaya Orthopedic&Super Speciality Hospital,13999603,Dr. B. R. Ambedkar Konaseema
11472587982,node,16.4250669,81.9643812,Sub-centre Odalarevu,13999603,Dr. B. R. Ambedkar Konaseema
654131447,way,16.5094206,81.9885288,"Government Hospital,Allavaram",13999603,Dr. B. R. Ambedkar Konaseema
2012808898,node,16.9936982,81.77651,Aruna Hospital,2022126,East Godavari
3076334664,node,16.9789629,81.7839492,Michel Hospital,2022126,East Godavari
3076334665,node,16.9792438,81.7836834,Dr.Prasad Skin & Sugar Hospital,2022126,East Godavari
3076334666,node,16.9796372,81.7839251,Surya Hospital,2022126,East Godavari
3076334667,node,16.9852111,81.7811752,Homeopati Dispensary,2022126,East Godavari
3076334668,node,16.9875104,81.7810427,Gurunath Memorial Hospital,2022126,East Godavari
3076334669,node,16.987684,81.7808699,Sri Sai Ram Hospital,2022126,East Godavari
3076334670,node,16.9920558,81.7758982,Raja Hospitals,2022126,East Godavari
3076334671,node,16.9921708,81.7757661,Aravindam Orthopaedic and Physiotherapy Centre,2022126,East Godavari
3076334672,node,16.9924705,81.7759644,Sri Ramya Ent Hospital,2022126,East Godavari
3076334673,node,16.9928224,81.7770454,Sri Satya Nursing Home,2022126,East Godavari
3076334674,node,16.9933206,81.7741381,Vishwanadha Eye and Maternity Hospital,2022126,East Godavari
3076334675,node,16.993323,81.7756763,Lakshmi Orthopedic Hospital,2022126,East Godavari
3076334676,node,16.9935196,81.7755253,Milinium Homeo Pati,2022126,East Godavari
3076334678,node,16.9938604,81.7738491,Sri Sanjivi Hospital,2022126,East Godavari
3076334679,node,16.9940501,81.7761413,Kakinada Dr.Basavayya Ayurveda Hospital,2022126,East Godavari
3076334680,node,16.9945621,81.77304,Ambika Eye Hospital,2022126,East Godavari
3076334681,node,16.9946426,81.7764695,Patanjali Chikistsalayam & Arogya Seva Kendram,2022126,East Godavari
3076334682,node,16.994747,81.7754102,Sudharshan Ayurvedic Hospital,2022126,East Godavari
3076334683,node,16.9947588,81.772404,Vamshi Krishna Hospital,2022126,East Godavari
3076334684,node,16.9948357,81.7717596,Srinivasa Hospitals,2022126,East Godavari
3076334685,node,16.9953264,81.7769949,Karunasri Hospital,2022126,East Godavari
3076334686,node,16.9953686,81.7725676,Aruna Homeo Hospital,2022126,East Godavari
3076334687,node,16.9956227,81.8057547,People's Hospital,2022126,East Godavari
3076334688,node,16.9956305,81.7713659,Ashwini Hospital,2022126,East Godavari
3076334689,node,16.995976,81.777822,Bhavan Hospital,2022126,East Godavari
3076334690,node,16.9961753,81.7720727,Bharat Nursing Home,2022126,East Godavari
3076334691,node,16.9968616,81.7783235,Eye Clinic,2022126,East Godavari
3076334692,node,16.9978645,81.7825339,Sri Hospital,2022126,East Godavari
3076334693,node,16.9979724,81.7827967,Rammohan Primary Health Centre,2022126,East Godavari
3076334694,node,16.99817,81.7753038,Venkatram Nursing Home,2022126,East Godavari
3076334695,node,16.9982929,81.8025949,Amma Hospital,2022126,East Godavari
3076334696,node,16.9983393,81.7717968,Postal Dispencary,2022126,East Godavari
3076334697,node,16.9987228,81.7761735,Aparna Nursing Home,2022126,East Godavari
3076334698,node,16.9989094,81.7699384,Municipal Corporation Of Rajahmudnry Dispensary,2022126,East Godavari
3076334699,node,17.000766,81.7747698,Esi Dispencary,2022126,East Godavari
3076334700,node,17.0009852,81.7961117,Municipal Corporaion Homeopati Dispensary,2022126,East Godavari
3076334701,node,17.0010004,81.7953068,Adarsh Hospital,2022126,East Godavari
3076334702,node,17.0014059,81.7761625,Dangeti Narayanaswamy Memorial Metarnity & General Hospital,2022126,East Godavari
3076334703,node,17.0016775,81.7799074,Sridhar Nursing Home,2022126,East Godavari
3076334704,node,17.0020893,81.7839046,"Urban Health Centre, Ambedkarnagar",2022126,East Godavari
3076334705,node,17.0022068,81.7684565,Ayurveda Vydyashala,2022126,East Godavari
3076334706,node,17.0026016,81.775522,Praja Vaidhyasala,2022126,East Godavari
3076334707,node,17.002669,81.7824868,Sri Maruti Nursing Home,2022126,East Godavari
3076334708,node,17.0029054,81.7843096,Abhi Talli Pilla Asupatri,2022126,East Godavari
3076334709,node,17.0030845,81.7755068,Sri Srinivasa Clinic,2022126,East Godavari
3076334711,node,17.0037246,81.7893841,Vimalamma Hospital & Krishna Eye Hospital,2022126,East Godavari
3076334712,node,17.0044276,81.7670061,Sri Ramakrishna Mission Charitable Dispensary,2022126,East Godavari
3076334713,node,17.0045361,81.7810717,Pragati Hospital,2022126,East Godavari
3076334714,node,17.0047609,81.7880749,Vijaya Hopitals,2022126,East Godavari
3076334715,node,17.0049779,81.7803062,Municipal Corporation Dispensary,2022126,East Godavari
3076334717,node,17.004929,81.794898,Madhavi Nursing Home,2022126,East Godavari
3076334718,node,17.0050427,81.7946801,Dakshayani,2022126,East Godavari
3076334719,node,17.0051258,81.7677332,Sri Shanmukha Sri Rambabu Hospital,2022126,East Godavari
3076334720,node,17.005944,81.7800133,Sri Vishnu Physiotherapy & Pain Relilf Centre,2022126,East Godavari
3076334721,node,17.0052657,81.7815879,Rajyalakshmi Nursing Home,2022126,East Godavari
3076334722,node,17.0053107,81.785263,Sri Ramya Sppech & Hearing Center,2022126,East Godavari
3076334723,node,17.0054465,81.7860538,Kalyan Nursing Home,2022126,East Godavari
3076334724,node,17.0055032,81.7814296,Suguna Children Hospital,2022126,East Godavari
3076334725,node,17.0055417,81.7812038,Sri Hari Skin Hospital,2022126,East Godavari
3076334726,node,17.0056313,81.7833072,Sravanthi Hospital,2022126,East Godavari
3076334727,node,17.0056544,81.7827869,Gopala Krishna Eye Specialist,2022126,East Godavari
3076334728,node,17.0056594,81.7688365,Sri Venkateswara Hospitals,2022126,East Godavari
3076334729,node,17.0056961,81.7828479,Dr.gopi Eye Hospital,2022126,East Godavari
3076334730,node,17.005774,81.7813827,Dr. A. Krishna Kumari,2022126,East Godavari
3076334731,node,17.0057948,81.7827961,Sravani E.N.T. & Chest Hospital,2022126,East Godavari
3076334732,node,17.0058031,81.7819031,Anjana Ent Care,2022126,East Godavari
3076341633,node,17.0058899,81.7803053,Pradeep Diabatis Centre,2022126,East Godavari
3076341634,node,17.0059084,81.7857103,Dr. G.V. Gopal Sarma,2022126,East Godavari
3076341635,node,17.0059405,81.785379,Raja Neuro And Multi Speciality Hospital Pvt Ltd,2022126,East Godavari
3076341636,node,17.0059499,81.7880764,Navata Nursing Home,2022126,East Godavari
3076341637,node,17.0059927,81.7853972,Raja Emergency Hospital,2022126,East Godavari
3076341640,node,17.0061496,81.7869819,Sri Mani Orthopedic Hospital,2022126,East Godavari
3076341641,node,17.0062208,81.7839957,Swetha Hospital,2022126,East Godavari
3076341642,node,17.0063436,81.7816558,Rama Children Nursing Home,2022126,East Godavari
3076341643,node,17.0063494,81.7814329,Nest New Born Hospital,2022126,East Godavari
3076341644,node,17.0063963,81.7852228,American Neuro Hub Physiotherapy Hospital,2022126,East Godavari
3076341645,node,17.006296,81.7833831,Sri Aditya Hospital,2022126,East Godavari
3076341646,node,17.0065246,81.7866579,Surya Hospital - East Godavari,2022126,East Godavari
3076341648,node,17.0066983,81.7849111,Sri Surya Homeopathy Hospital,2022126,East Godavari
3076341649,node,17.0067393,81.795441,Vijaya Bharti Chest Institute,2022126,East Godavari
3076341650,node,17.006811,81.7811882,Homeo Care International,2022126,East Godavari
3076341652,node,17.0068948,81.7861699,Pragati Hospital,2022126,East Godavari
3076341653,node,17.0069278,81.7880667,Sita Gastro Entrology & Super Speciality Hospital,2022126,East Godavari
3076341654,node,17.0069568,81.7954634,Dr.vijaya Eye Hospital,2022126,East Godavari
3076341655,node,17.0070487,81.784046,Sri Nanda Hospital,2022126,East Godavari
3076341656,node,17.0070884,81.783762,Vijetha Orthopedic Super Speciality Hospital,2022126,East Godavari
3076341657,node,17.0070938,81.7867766,Suhasa Dental Multi Specialities Hospital,2022126,East Godavari
3076341658,node,17.0071781,81.7863515,Ushodaya E.n.t Hospital,2022126,East Godavari
3076341659,node,17.0071978,81.7907703,Sri Srinivasa Hospital,2022126,East Godavari
3076341660,node,17.0074179,81.7865652,Padma Madhavi Super Speciality Centre,2022126,East Godavari
3076341662,node,17.0074794,81.7862618,Sri Padma Madav Neuro Speciality Hospital,2022126,East Godavari
3076341663,node,17.0074907,81.7943102,Abhaya Emergency Centre,2022126,East Godavari
3076341664,node,17.0075058,81.7861728,Santi Ratna Ent Hospital,2022126,East Godavari
3076341665,node,17.0075257,81.7838677,Vakula Baby Child Hospital,2022126,East Godavari
3076341666,node,17.0076208,81.7815055,Horomnes Rjy Institute of Diabets & Endocrinology,2022126,East Godavari
3076341667,node,17.0076219,81.7840521,Nandam Hospital,2022126,East Godavari
3076341668,node,17.0076233,81.7810271,Bhavya Skin Hospital,2022126,East Godavari
3076341669,node,17.007627,81.7871536,Sneha Hospital,2022126,East Godavari
3076341670,node,17.007687,81.7912016,Apex Hospital,2022126,East Godavari
3076341671,node,17.007689,81.7897388,"Pavan Astma,t.b.and Chest Clinic",2022126,East Godavari
3076341672,node,17.0077123,81.7841309,Sanjana Orthopaedic Hospital,2022126,East Godavari
3076341673,node,17.0077823,81.7838968,Coastal Cardiac And Maternity Centre,2022126,East Godavari
3076341674,node,17.0078054,81.7888635,Suraksha Emergency Hospital,2022126,East Godavari
3076341675,node,17.0078288,81.7861115,Manasa Hospital,2022126,East Godavari
3076341676,node,17.0080038,81.7895726,Srikanth Nursing Home,2022126,East Godavari
3076341678,node,17.0080643,81.7814609,Sridevi Cancer Nursing,2022126,East Godavari
3076341679,node,17.008103,81.7755774,Siddharth Children & Maternity Hospital,2022126,East Godavari
3076341680,node,17.0081489,81.7829309,Kandula Sai Diabaties Hospital,2022126,East Godavari
3076341681,node,17.0081883,81.7852679,Jaswanth Psychiatric Hospital,2022126,East Godavari
3076341682,node,17.0082199,81.7865372,Anurag Chest Hospital,2022126,East Godavari
3076341683,node,17.0082244,81.7861912,Hopes Hospital,2022126,East Godavari
3076341684,node,17.0082254,81.7863707,Nemani Kidny Centre,2022126,East Godavari
3076341685,node,17.0083496,81.7815785,Sreya Medical Speciality Centre,2022126,East Godavari
3076341686,node,17.0084072,81.7879144,Soujanya Hospita,2022126,East Godavari
3076341687,node,17.0084534,81.7758283,Navodaya Homeo Hospital,2022126,East Godavari
3076341688,node,17.0085301,81.7748412,Unani Dispensary,2022126,East Godavari
3076341689,node,17.0086943,81.7810887,Rajhmundry Hospitals,2022126,East Godavari
3076341690,node,17.0088498,81.7747867,Buddhudu Hospitals,2022126,East Godavari
3076341691,node,17.0093773,81.7872009,Sambamurthy Hospital for Nuero Surgeon,2022126,East Godavari
3076341692,node,17.0105653,81.7726469,Kranti Nursing Home,2022126,East Godavari
3076341693,node,17.0102148,81.7724541,Akkina Diabeties,2022126,East Godavari
3076341694,node,17.0097411,81.7716741,Amar Eye Hospital,2022126,East Godavari
3076341695,node,17.01067,81.7723909,Aalapati Diabeties,2022126,East Godavari
3076341696,node,17.0107453,81.7722214,Divya Hospital,2022126,East Godavari
3076341697,node,17.0108791,81.7759419,Kosuri Hospital,2022126,East Godavari
3076341698,node,17.0109223,81.7705865,Srinivasa Orthopedic Hospital,2022126,East Godavari
3076341699,node,17.0109608,81.7713333,Sri Nayana Hospital,2022126,East Godavari
3076341700,node,17.0108684,81.7729886,Royal Hospital,2022126,East Godavari
3076341701,node,17.0110395,81.7909686,Sri Poorna Primary Hospital,2022126,East Godavari
3076341702,node,17.0110784,81.7717257,Sree Latha Hospital,2022126,East Godavari
3076341703,node,17.0109325,81.7733096,Bommana Hospital,2022126,East Godavari
3076341704,node,17.0112531,81.7719024,Gangina Thalli Childern's Hospital,2022126,East Godavari
3076341705,node,17.0116753,81.7722936,Bhavathi Homeo Hospital,2022126,East Godavari
3076341706,node,17.0121948,81.7718541,Pothuri Skin & Hair Hospital,2022126,East Godavari
3076341707,node,17.0124963,81.7718688,Sarojini Dental Hospital,2022126,East Godavari
3076341708,node,17.0131416,81.7716415,Akira Eye Hospital,2022126,East Godavari
3076341709,node,17.0134508,81.7726818,Chunnilal Jaju Municipal Maternity Hospital,2022126,East Godavari
3076341710,node,17.0134786,81.7727676,Muncipal Corporation of Alopathi Hospital,2022126,East Godavari
3076341711,node,17.0140744,81.7774286,Swatantra Hospitals,2022126,East Godavari
3076341712,node,17.0143021,81.7843141,Dr. Allu Ramalingayya Homeo Hospital And College,2022126,East Godavari
3076341713,node,17.0143276,81.7765732,Vasu Hospital,2022126,East Godavari
3076341714,node,17.0144747,81.7716019,Dr.Chainulus Hospital and Anusha Critical Carecenter,2022126,East Godavari
3076341715,node,17.0148228,81.776819,G S L Trust Cancer Hospital,2022126,East Godavari
3076341716,node,17.0150114,81.7811317,Sri Rama Santhana Safalya Kendram,2022126,East Godavari
3076341717,node,17.0163942,81.7808306,Bhavani Nursing Home,2022126,East Godavari
3076341718,node,17.0173375,81.7729584,Mother Terissa Hospital,2022126,East Godavari
3076341719,node,17.0178118,81.7752371,Amrutha Hospitals,2022126,East Godavari
3076341721,node,17.0188365,81.800639,Sri Saiteja Hospital,2022126,East Godavari
3076341722,node,17.0192208,81.7741456,Sv Dattatreya Ayurvedha Hospitals,2022126,East Godavari
3076341723,node,17.0195969,81.7917809,"District Hospital,Rajahmundry",2022126,East Godavari
3076341724,node,17.0198394,81.7726437,Urban Health Centre,2022126,East Godavari
3076341725,node,17.0209427,81.7829255,Goutami Eye Institute,2022126,East Godavari
3076341726,node,17.0209627,81.774388,Ratna Mother & Child Hospital,2022126,East Godavari
3076341727,node,17.020972,81.7726002,Primary Health Centre,2022126,East Godavari
3076341729,node,17.0209835,81.7767428,Chaitanya Nursing Home,2022126,East Godavari
3076341730,node,17.0215655,81.7839417,Filaria Hospital,2022126,East Godavari
3076341731,node,17.0218707,81.7946675,Homeo Hospital,2022126,East Godavari
3076341732,node,17.0223102,81.776799,Employee State Insurance Hospital,2022126,East Godavari
3076342033,node,17.0233664,81.7760646,Dr.p.ramachandra Rao Orthopetic Center,2022126,East Godavari
3076342034,node,17.0233913,81.7757656,Harika Diabetes Centre,2022126,East Godavari
3076342035,node,17.0240441,81.7826563,Sarada Nursing Home,2022126,East Godavari
3076342036,node,17.0242996,81.7847058,Sushruta Nursing Home,2022126,East Godavari
3076342037,node,17.024538,81.7764279,S.R. Hospitals,2022126,East Godavari
3076342038,node,17.0252764,81.8049384,Sai Teja Hospital,2022126,East Godavari
3076342039,node,17.0261706,81.8056364,Sri Hospital,2022126,East Godavari
3076342040,node,17.034771,81.7817019,"Urban Health Centre, Anand Nagar",2022126,East Godavari
3076345360,node,16.9941919,81.7758721,Geetha Mullapudi Superspeciality Dental Hospital,2022126,East Godavari
4172136518,node,16.8440189,81.6887678,Primary care hospital,2022126,East Godavari
4591335310,node,17.0688905,81.8745037,Hospital,2022126,East Godavari
6219653765,node,17.0190237,81.7757004,Annapurna Hospitals,2022126,East Godavari
6755526825,node,17.0067421,81.7895664,Kamalakar Hospital,2022126,East Godavari
6758632648,node,17.008131,81.785531,Murthy Neuro Super Speciality Hospital,2022126,East Godavari
6758809074,node,17.0066113,81.7952165,Vijaya Hospital - East Godavari,2022126,East Godavari
6758846662,node,17.0040386,81.795132,Madhavi Nursing Home - East Godavari,2022126,East Godavari
6761191760,node,17.0068421,81.7908552,Prasanthi Nursing Home - East Godavari,2022126,East Godavari
6768379254,node,17.0191905,81.7995697,Saiteja Hospital,2022126,East Godavari
6768594134,node,17.007223,81.7860661,Bharadwaja Heart and Maternity Centre,2022126,East Godavari
6768622936,node,17.0071384,81.7903054,Apex Hospital - Rajamundry,2022126,East Godavari
6771205695,node,17.007852,81.7890843,Harsha Hospitals,2022126,East Godavari
6771230170,node,17.0666041,81.8830441,G. S. L. General Hospital and Medical College,2022126,East Godavari
6771350881,node,16.9317892,81.9551955,Narayana Reddy Eye Hospital,2022126,East Godavari
6771409747,node,17.008206,81.7735114,Sri Ram Nursing Home,2022126,East Godavari
6773438669,node,16.999818,81.780117,Neela Jear Hospital,2022126,East Godavari
6773467818,node,17.0132107,81.7963414,Gowthami Nursing Home,2022126,East Godavari
6773696167,node,17.0092967,81.7887054,Bhaskara Raju Children's Hospital,2022126,East Godavari
6778583217,node,17.0052493,81.7887805,Sri Ramadas Hospitals,2022126,East Godavari
6781921877,node,16.9992479,81.7957422,Chakradhar Hospitals,2022126,East Godavari
6781956345,node,16.9225041,81.8033677,Paramahansa Yogananda Eye Hospital,2022126,East Godavari
6782078694,node,16.9086905,81.6710637,Sri Surya Hospital,2022126,East Godavari
6782223155,node,17.0057251,81.788334,Vasan Eye Care Hospital,2022126,East Godavari
6782266495,node,17.0057238,81.7848122,Netra Eye Care,2022126,East Godavari
6784704194,node,17.0072499,81.7891205,Pragati Super Speciality Hospital,2022126,East Godavari
6786873811,node,17.0084144,81.7880402,Alert Emergency Hospital,2022126,East Godavari
6786899164,node,17.0061406,81.7817049,NEST Sagar Hospital,2022126,East Godavari
6792329464,node,17.0053173,81.7804375,Sri Suguna Childrens Hospital,2022126,East Godavari
6798230897,node,17.0081938,81.7866153,Rajahmundry Orthopedic Hospital,2022126,East Godavari
6801263539,node,17.0118783,81.7712684,Sai Hospital,2022126,East Godavari
6804952464,node,17.0062958,81.7819034,Swetha Hospitals,2022126,East Godavari
7088103748,node,17.0113277,81.8086849,Delta hospital,2022126,East Godavari
7108780985,node,17.0112916,81.8086885,Delta hospital,2022126,East Godavari
7114008103,node,16.749847,81.734411,"Government Hospital, Peravali",2022126,East Godavari
7114008140,node,17.0289633,81.5555607,"Government Hospital,Devarapalli",2022126,East Godavari
7116293024,node,17.1272265,81.8529028,"Government Hospital,Dosakayalapalle",2022126,East Godavari
7116293052,node,17.0763489,81.9014249,"Government Hospital,Rajanagaram",2022126,East Godavari
7116293056,node,17.2027641,81.7709812,"Government Hospital, Kotikesavaram",2022126,East Godavari
7116293062,node,16.96141,82.0469661,"Government Hospital, Bikkavolu",2022126,East Godavari
7116293171,node,17.169486,81.8347822,"Government Hospital, Korukonda",2022126,East Godavari
7787847493,node,17.0785629,81.90077,Navya Hospital,2022126,East Godavari
7787847503,node,17.1697665,81.8288838,Seetharama Hospital,2022126,East Godavari
7787847504,node,17.0802137,81.8995923,Children's Hospital,2022126,East Godavari
7787847505,node,17.071859,81.8971914,Vadayar Hospital,2022126,East Godavari
7787847511,node,17.2589953,81.8494794,Sapthagiri Dental Hospital,2022126,East Godavari
7790661650,node,16.9471229,81.7777694,Sri Datta Ayurvedic Hospital,2022126,East Godavari
7790661652,node,16.9767784,81.7836232,Aditya Multi Specialty Ayurvedic Hospital,2022126,East Godavari
7790661653,node,17.00735,81.7918325,Ascent Cancer And Multispeciality Hospital,2022126,East Godavari
7790661654,node,17.007125,81.788836,GSR Neuro Speciality Hospital,2022126,East Godavari
7790661655,node,17.0115704,81.7709901,Sai Super Speciality Hospital,2022126,East Godavari
7790661660,node,17.0004861,81.7766588,Prasuthi Hospital,2022126,East Godavari
7790661661,node,16.9574786,81.7837062,Santharam Hospital,2022126,East Godavari
7790661662,node,16.9823377,81.7845723,Railway Hospital,2022126,East Godavari
7790661663,node,17.0060882,81.7823433,Jabilli Children's Hospital,2022126,East Godavari
7790661664,node,17.0021704,81.7776938,Annasa Adinarayana Ayurvedic Hospital,2022126,East Godavari
7790661665,node,17.0064855,81.7833234,Sri Suryachandra Homeo Hospital,2022126,East Godavari
7790661668,node,16.9488045,81.7816228,Mallika Dental Hospital,2022126,East Godavari
7790661670,node,17.0141042,81.7800405,G Sambasiva Reddy Hospital,2022126,East Godavari
7790661674,node,16.9953163,81.7732768,SR Trust Hospital,2022126,East Godavari
7790661679,node,17.0121798,81.7949395,Vivek Hospital,2022126,East Godavari
7790661680,node,16.96305,82.0486739,Padmanabham's Hospital,2022126,East Godavari
7790661681,node,17.009068,81.780949,Sri Ramachandra Hospital,2022126,East Godavari
7790661682,node,16.935166,81.9542,Gangi Reddy Nursing Home,2022126,East Godavari
7790661684,node,17.0220352,81.7892576,Tholat Memorial Hospital,2022126,East Godavari
7790661686,node,17.0298024,81.7859276,Ankitha Children's Hospital,2022126,East Godavari
7790661687,node,17.007024,81.788993,Haritha Hospital,2022126,East Godavari
7790661688,node,17.0075484,81.7739625,Rajendra Prasad Skin Hospital,2022126,East Godavari
7790661689,node,16.9357779,81.9552543,Sagar Children Hospital,2022126,East Godavari
7790661690,node,16.9292537,81.7942874,Gouthami Hospital,2022126,East Godavari
7790661693,node,17.00699,81.789588,Pawan Chest Hospital,2022126,East Godavari
7790661697,node,17.0192985,81.7736461,Krishnaveni Hospital,2022126,East Godavari
7790661702,node,17.0449069,81.7955703,Rainbow Physiotherapy Hospital,2022126,East Godavari
7790661705,node,16.9751759,81.7869708,Amma Hospital,2022126,East Godavari
7790661706,node,16.9508779,81.7867723,CEM Hospital,2022126,East Godavari
7790661707,node,17.017073,81.781944,Vaddadi Hospital,2022126,East Godavari
7790661709,node,17.0077644,81.7736563,Satya Sai Hospital,2022126,East Godavari
7790661710,node,17.0079572,81.7733805,Prasad Neuro Hospitals,2022126,East Godavari
7791668554,node,17.016916,81.731913,Dr. Kota Papa Rao Memorial Homeo Hospital,2022126,East Godavari
7791668556,node,16.9017023,81.6734258,Sri Haritha Hospital,2022126,East Godavari
7791668559,node,17.0996979,81.5497122,Bulli's Hospital,2022126,East Godavari
7791668562,node,17.100479,81.549732,Government Hospital,2022126,East Godavari
7791668564,node,17.0167706,81.7330598,Sri Krishna Hospital,2022126,East Godavari
7791668569,node,16.9072802,81.6758972,Deepa Hospital,2022126,East Godavari
7791668571,node,17.0213157,81.728211,Sravanthi Multi Speciality Dental Hospital,2022126,East Godavari
7791668573,node,16.910769,81.673887,Purnima Children Hospital,2022126,East Godavari
7791668581,node,16.9018715,81.6728432,Susrutha Hospital,2022126,East Godavari
7791668582,node,17.0574274,81.4722021,Government Hospital,2022126,East Godavari
7791668587,node,16.992654,81.666948,Sambasivarao Hospital,2022126,East Godavari
7791668592,node,16.8989454,81.6704762,Children Hospital,2022126,East Godavari
7791668596,node,17.1229804,81.6632667,Lakshmi Kumari Hospital,2022126,East Godavari
7791668597,node,17.0330231,81.5557052,Venkat Rao Hospital,2022126,East Godavari
7791668598,node,17.0999364,81.5391062,Sagar Dental Hospital,2022126,East Godavari
7791668599,node,16.908798,81.672718,Amma Hospital,2022126,East Godavari
7791668600,node,17.123819,81.665362,Dr. Murty Hospital,2022126,East Godavari
7791668601,node,16.8985469,81.666643,Holy Cross Hospital,2022126,East Godavari
7791668602,node,16.909875,81.670586,Sri Siddartha Children's Hospital,2022126,East Godavari
7791668603,node,16.8935312,81.6678841,Rajeswari Ramakrishnan Lions Eye Hospital,2022126,East Godavari
7791668604,node,17.0150759,81.7335799,Goverment Hospital,2022126,East Godavari
7791668605,node,16.903526,81.670669,Government Hospital,2022126,East Godavari
7791668607,node,16.9057251,81.670991,Seshgir Hospitals,2022126,East Godavari
7791668610,node,17.0178086,81.7290663,Sri Sai Bhavani Hospital,2022126,East Godavari
7791668611,node,16.9102166,81.672109,Hope Ortho & Trauma Hospital,2022126,East Godavari
7791668612,node,16.9085692,81.6714682,Vemulapalli Dental Hospital,2022126,East Godavari
7791668613,node,16.9003962,81.6712232,Susrutha Multi Speciality Hospital,2022126,East Godavari
7791668616,node,17.0128398,81.7281519,J.M. Sai Gayatri Hospital,2022126,East Godavari
7791668619,node,16.909526,81.671824,Jagruthi Eye Hospital,2022126,East Godavari
7791668623,node,17.021228,81.728169,Sri Sai Dental Hospital,2022126,East Godavari
7791668625,node,17.1324792,81.6607124,Sri Sai Spoorthy Hospital,2022126,East Godavari
7791833503,node,16.7856984,81.700497,St. Ambrose Hospital,2022126,East Godavari
7793082295,node,16.9506253,81.4086897,Dr. Venkatapathi Hospital,2022126,East Godavari
7793082307,node,16.9498421,81.4145879,Sunkesula Multi Speciality Hospital,2022126,East Godavari
8116992452,node,16.7638577,81.6867124,PMC Children Home,2022126,East Godavari
8763389376,node,17.0040899,81.7901351,Sri Sanjeevini Hospital,2022126,East Godavari
8791406528,node,16.9472304,81.4069721,Vadlamudi Hospitals,2022126,East Godavari
8794053510,node,17.0078232,81.7740767,Universal Hospitals Rajahmundry,2022126,East Godavari
8794072842,node,17.0069992,81.7859146,Sri Santhi Ent Hospital,2022126,East Godavari
8794187894,node,16.9221038,82.0129623,Surareddy Nursing Home,2022126,East Godavari
8794616540,node,17.0054712,81.7859146,R.S Neuro Care Hospital,2022126,East Godavari
8794771773,node,17.0101944,81.7946371,"Agarwals Eye Hospital, Rajahmundry",2022126,East Godavari
8794834832,node,17.0058168,81.7857476,Gandhi Hospital,2022126,East Godavari
8794932448,node,17.005475,81.782295,vijay hospital,2022126,East Godavari
9924615989,node,17.1774358,81.6963013,Sri Rama Nursing Home,2022126,East Godavari
12257908002,node,17.0052873,81.7828325,Varun Gastro & Liver care,2022126,East Godavari
12270522002,node,17.0199901,81.7778139,Ravi Chaitanya Kidney And Children's Hospital,2022126,East Godavari
12270870691,node,17.0052336,81.7846816,Dr Mohans International dentist hospital,2022126,East Godavari
12270870694,node,17.0050831,81.7853301,London IVF,2022126,East Godavari
12270882990,node,17.0058595,81.7850352,Raksha Hospital Grounds,2022126,East Godavari
12270884097,node,17.0062738,81.7864526,Jupiter hospitals,2022126,East Godavari
12270888472,node,17.0058743,81.7840843,Kify Hospitals,2022126,East Godavari
13086312710,node,16.8016334,81.6423774,medical shop,2022126,East Godavari
13086358684,node,16.9615633,82.0485485,mediplus,2022126,East Godavari
13179906382,node,17.009316,81.7759557,lakshmi clinic,2022126,East Godavari
198879112,way,17.0190228,81.7757014,Annapurna Hospitals,2022126,East Godavari
205584879,way,17.0150338,81.7811457,DR.RAMA'S INSTITUTE FOR FERTILITY,2022126,East Godavari
320914929,way,17.0103466,81.7720343,Atthili hospital,2022126,East Godavari
674598107,way,17.0662404,81.660402,GOVT. Primary Hospital,2022126,East Godavari
721536104,way,16.9937265,81.7765732,Aruna Hospital,2022126,East Godavari
761619704,way,17.0351374,81.6894128,PHC,2022126,East Godavari
1071972471,way,16.9327424,81.9559224,"Government Hospital,Anaparthy",2022126,East Godavari
2332958446,node,17.0704241,80.9836067,Government hospital,13999189,Eluru
6758598414,node,16.7067513,81.0887964,Prashanti Hospitals Uro Gyneac Infertility Centre,13999189,Eluru
6758637427,node,16.7084256,81.0925327,Siri Hospital,13999189,Eluru
6758660085,node,16.8202379,81.2650537,Our Lady Of Health Hospital,13999189,Eluru
6758735939,node,16.7069985,81.0885859,Kay Vee Hospital,13999189,Eluru
6758780461,node,16.7087814,81.0918327,Shri Krishna Mother and Child Hospital,13999189,Eluru
6758795616,node,16.7115983,81.0999437,Sankara Netra Chikitsalaya,13999189,Eluru
6758818877,node,16.7147708,81.1008435,Bhuvaneshwari Hospital,13999189,Eluru
6768567094,node,16.7139013,81.1004546,Mother Child Hospital,13999189,Eluru
6773465564,node,16.7131666,81.0999437,Vijaya Hospital,13999189,Eluru
6782263530,node,16.7135545,81.1004774,Kamala Hospitals,13999189,Eluru
6786894252,node,16.8253907,81.2648526,Katragadda Nursing Home,13999189,Eluru
6787350817,node,16.7129701,81.1029638,Swaruparani Nursing Home,13999189,Eluru
6791932251,node,16.7109695,81.1008657,Yasoda Hospital,13999189,Eluru
6798102743,node,16.7141761,81.1015999,Mahalakshmi Hospitals,13999189,Eluru
6804619272,node,17.1159596,81.2953909,chirajeevi hospital,13999189,Eluru
6804691759,node,16.7144574,81.1018614,Sri Maruthi Hospital,13999189,Eluru
6804932847,node,16.784631,80.8457521,Sailaja Nursing Home,13999189,Eluru
7114008069,node,17.0057151,81.1913352,"Government Hospital , Kamavarapukota",13999189,Eluru
7114008071,node,16.7430376,81.3918586,"Government Hospital, Pedanindrakolanu",13999189,Eluru
7114008074,node,17.1175225,80.9010288,"Government Hospital,Raghavapuram",13999189,Eluru
7114008101,node,17.084158,81.1955157,"Government Hospital, Borrampalem",13999189,Eluru
7114008145,node,16.724522,80.909956,"Government hospital, Gollapalli",13999189,Eluru
7116293067,node,16.685033,80.787802,"Government Hospital, Agiripalli",13999189,Eluru
7116293092,node,16.4043438,81.1079236,Guraja Government Hospital,13999189,Eluru
7116293109,node,16.4442273,81.2111329,Devapudi Government Hospital,13999189,Eluru
7116293140,node,16.505681,81.293499,"Government Hospital, Kalidindi",13999189,Eluru
7791668560,node,17.2559826,81.6489558,Dr. JLBM General Hospital,13999189,Eluru
7791668568,node,17.245975,81.6443564,Sri Seetha Rama Hospital,13999189,Eluru
7791668570,node,17.1208353,81.2927721,Sai Spurthi Emergency Hospital,13999189,Eluru
7791668577,node,17.123047,81.295655,hospital of pediatric,13999189,Eluru
7791668585,node,17.124097,81.2898715,Sita Hospital,13999189,Eluru
7791668590,node,17.1175164,81.2966198,Shri Chaithanya Super Speciality Dental Hospital,13999189,Eluru
7791668591,node,17.133629,81.428689,Suraksha Hospital,13999189,Eluru
7791668594,node,17.1202698,81.2950312,Naga Sai Super Speciality Hospital,13999189,Eluru
7791668608,node,17.1199805,81.2971007,Gemini Hospital,13999189,Eluru
7791668614,node,17.1208173,81.2995132,Vasundhara Hospital,13999189,Eluru
7791668617,node,17.123618,81.289777,Sri Suseela Hospital,13999189,Eluru
7791668618,node,17.123306,81.292148,Sri Charita Hospital,13999189,Eluru
7791668621,node,17.1150334,81.2931143,SV Eye Hospital,13999189,Eluru
7791668624,node,17.201129,81.31971,Sanjeevan Eye Hospital,13999189,Eluru
7791668626,node,17.201918,81.319625,Government Hospital,13999189,Eluru
7791668628,node,17.115806,81.296225,PVR Hospital,13999189,Eluru
7791769496,node,17.0100841,81.194291,Meduri Satyambabu Hospital,13999189,Eluru
7791769497,node,16.7161511,81.0961282,Sri Sairam Multi Speciality Hospital,13999189,Eluru
7791769500,node,16.7012926,81.1071464,Eluru Hospital,13999189,Eluru
7791769501,node,17.0698905,80.9840647,Dr. Satyanarayana Hospital,13999189,Eluru
7791769502,node,16.7216947,81.1096637,Himaja Hospitals,13999189,Eluru
7791769504,node,16.71066,81.099987,Sai Krishna Mother & Child Hospital,13999189,Eluru
7791769505,node,16.7156367,81.1007623,Susrutha ENT & Skin Hospital & HCG Cancer Centre,13999189,Eluru
7791769508,node,16.7153085,81.0955023,Prabha Hospital,13999189,Eluru
7791769509,node,16.7113832,81.1014027,Sri Balaji Multi Speciality Dental Hospital,13999189,Eluru
7791769510,node,16.713689,81.100781,Little Hearts Children's Hospital,13999189,Eluru
7791769512,node,16.7190138,81.0912437,Chaitra Hospitals,13999189,Eluru
7791769518,node,16.7111947,81.101147,A.A Hospitals,13999189,Eluru
7791769519,node,16.71603,81.099493,Sai Children's Hospital,13999189,Eluru
7791769520,node,16.821169,81.264026,Devi Hospital,13999189,Eluru
7791769525,node,16.7130705,81.0984594,Eluru Children's Hospital,13999189,Eluru
7791769526,node,16.9314171,81.250651,VIRRD Trust Hospital,13999189,Eluru
7791769530,node,16.7231569,81.1110914,Mukhyamantri Aarogya Kendram,13999189,Eluru
7791769531,node,16.7145352,81.100888,Chanchaya Hospital,13999189,Eluru
7791769533,node,16.8171001,81.2629996,Amma Hospital,13999189,Eluru
7791769535,node,16.708601,81.092084,Sri Sidhardha ENT & Dental Hospital,13999189,Eluru
7791769537,node,16.7669828,81.1673544,Government Hospital,13999189,Eluru
7791769538,node,16.817755,81.26323,Government Hospital,13999189,Eluru
7791769539,node,16.7140116,81.0994975,Vijaya Skin Hospital & Laser Centre,13999189,Eluru
7791769541,node,16.7099733,81.1142107,Siddhartha Hospital,13999189,Eluru
7791769543,node,16.7104454,81.1126518,Srinivasa Children Hospital,13999189,Eluru
7791769544,node,16.7095565,81.0938273,Murali Krishna Multispeciality & Emergency Hospital,13999189,Eluru
7791769546,node,16.952392,81.256391,Sri Srinivasa Hospital,13999189,Eluru
7791769550,node,16.714019,81.0982128,Uma Hospital,13999189,Eluru
7791769554,node,16.711699,81.100539,Sri Dwaraka Hospital,13999189,Eluru
7791769555,node,16.7166257,81.1053295,Praja Hospital,13999189,Eluru
7791769556,node,16.716451,81.109788,Bavananjali Pradamika Hospital,13999189,Eluru
7791769557,node,16.7147696,81.0993842,Godavari Skin Disease Hospital,13999189,Eluru
7791769558,node,16.7160059,81.1001089,Sri Nidhi Hospital,13999189,Eluru
7791769559,node,17.0754288,80.9873585,Lotus Hospital,13999189,Eluru
7791769560,node,16.711191,81.10059,Royal ENT Hospital,13999189,Eluru
7791769561,node,16.7184272,81.1108391,Dr. Krishna Baghavan General And Diabetic Hospital,13999189,Eluru
7791769564,node,16.7141124,81.1027811,Viswateja Skin & Chest Hospital,13999189,Eluru
7791769565,node,16.7126787,81.1211505,Asram Hospital,13999189,Eluru
7791769566,node,16.8224693,81.2653895,Dr. Balu Hospital,13999189,Eluru
7791769567,node,16.7116813,81.0982853,Venkatasai Gastro Super Speciality Hospital,13999189,Eluru
7791769568,node,16.714429,81.100876,Amulya Orthopaedic Hospital,13999189,Eluru
7791769569,node,16.7129965,81.1029861,Dr. Prabhavathi Hospital,13999189,Eluru
7791769570,node,16.7147861,81.1124973,Prasad Hospital,13999189,Eluru
7791769571,node,16.7246452,81.0879729,Dr. Surapaneni Krishnamurti Helapuri Lions Kanti Hospital,13999189,Eluru
7791769573,node,17.0661439,80.9833103,Nageswara Rao Private Hospital,13999189,Eluru
7791769576,node,17.0698414,80.9842174,Dental Hospital,13999189,Eluru
7791769577,node,16.7123487,81.1009483,Andhra Hospitals,13999189,Eluru
7791769578,node,16.706559,81.076213,Tapaswi Homeo Hospital,13999189,Eluru
7793082281,node,16.7637791,81.3901436,Mahavir Hospital,13999189,Eluru
7793082304,node,16.825173,81.39908,New Government Hospital,13999189,Eluru
7793082323,node,16.8172478,81.4211809,L V Prasad Eye Hospital,13999189,Eluru
7793151876,node,16.7921626,80.8466597,Thathiya Babu Hospital,13999189,Eluru
7793151894,node,16.7802323,80.8458479,Dr. Raghava Rao Hospital,13999189,Eluru
7793151911,node,16.7895197,80.842919,Giffard Memorial Hospital,13999189,Eluru
7793151925,node,16.7883725,80.8495524,Janatha Hospital,13999189,Eluru
8791401087,node,16.7143046,81.1005928,Sri Lakshmi Krishan Maternity and E.N.T Hospital,13999189,Eluru
8791456527,node,16.7081931,81.1051109,Chaitra Hospitals,13999189,Eluru
9144704219,node,17.0692905,80.9853836,Fathima Clinic,13999189,Eluru
12633804403,node,16.8172082,81.4211962,lv prasad hospital,13999189,Eluru
13086218032,node,16.8126705,81.3639052,Medical Shop,13999189,Eluru
13086218050,node,16.8089824,81.3657965,Hospital,13999189,Eluru
13086302871,node,16.8098179,81.3665509,Hospital,13999189,Eluru
13086302878,node,16.8089637,81.3664089,Medical shop,13999189,Eluru
13086302879,node,16.8107502,81.365861,Medical shop,13999189,Eluru
13088351808,node,16.8124794,81.3639873,hospital,13999189,Eluru
592993724,way,16.7365033,81.1436241,Asram Hospital,13999189,Eluru
607903215,way,16.6966015,81.0947147,Good Samaritan Cancer Hospital,13999189,Eluru
677361823,way,16.7133436,81.0951087,District GOVT. Hospital,13999189,Eluru
823478275,way,16.7894439,80.8430417,Giffard Memorial Hospital,13999189,Eluru
1423802040,way,16.8211643,81.4003757,lakshmi nursing home,13999189,Eluru
1803920200,node,16.3558221,80.5024478,SHKVPB Hospital,2022220,Guntur
4594101042,node,16.357883,80.5308101,Harinadh clinic,2022220,Guntur
5030732983,node,16.3028914,80.4481909,Sri Lakshmi Super Speciality Hospitals,2022220,Guntur
5036963303,node,16.484403,80.6168828,Manipal Super Specialty Hospital,2022220,Guntur
5358202387,node,16.3973328,80.6243555,Animals hospital,2022220,Guntur
5358841877,node,16.3805033,80.65888,Prabutva chiktsa kendram,2022220,Guntur
5640977623,node,16.4519968,80.609687,Lakshmi firstaid centre,2022220,Guntur
5640989737,node,16.4626543,80.6176118,Xerox,2022220,Guntur
5641015123,node,16.4543877,80.6098436,Amma first aid center,2022220,Guntur
5641482325,node,16.463059,80.6172565,Venkateswara Medicals and Fancies,2022220,Guntur
6183032185,node,16.4799758,80.6162752,Sri Vidya hospital,2022220,Guntur
6183059585,node,16.4815832,80.6130132,Sri Sai diagnostics,2022220,Guntur
6755533201,node,16.3001348,80.4500753,Dhulipalla Hospital Pvt Ltd,2022220,Guntur
6755536720,node,16.245762,80.6433933,Vadlamudi Hospital,2022220,Guntur
6755567415,node,16.2437307,80.6464264,J.K Hospital,2022220,Guntur
6755568703,node,16.2393552,80.6511432,Ganga Kumari Memorial Children Nursing Home,2022220,Guntur
6755570870,node,16.3311243,80.4868162,Bommidala Cancer Institute,2022220,Guntur
6755700654,node,16.3036768,80.4616338,Mediline Hospital,2022220,Guntur
6755704088,node,16.3136909,80.4374329,Ala Hospital,2022220,Guntur
6755719494,node,16.3093417,80.4327154,Sree Geetha Eye Hospital,2022220,Guntur
6755725918,node,16.3104334,80.4334114,Sanjivi Orthopaedic and Physiotherapy Centre,2022220,Guntur
6755929137,node,16.2991437,80.4503153,Guntur City Hospital,2022220,Guntur
6757264567,node,16.3502725,80.493169,Sankara Eye Hospital - Guntur,2022220,Guntur
6757301149,node,16.2966008,80.4530364,Amma Hospital,2022220,Guntur
6758468770,node,16.3104296,80.4291004,Nightingale Hospital,2022220,Guntur
6758605186,node,16.2995918,80.4510969,Raghavendra Hospitals,2022220,Guntur
6758606007,node,16.3036045,80.4411348,Sri Sai Hospitals,2022220,Guntur
6758639000,node,16.2941634,80.4487506,Lalitha Super Specialty Hospital,2022220,Guntur
